[
  {
    "university": "http://www.wikidata.org/entity/Q214341",
    "universityLabel": "University of Amsterdam",
    "inception": "1632-01-01T00:00:00Z",
    "located_in_the_administrative_territorial_entity": "http://www.wikidata.org/entity/Q9899",
    "located_in_the_administrative_territorial_entityLabel": "Amsterdam",
    "country": "http://www.wikidata.org/entity/Q55",
    "countryLabel": "Netherlands",
    "students_count": 31123,
    "image": "http://commons.wikimedia.org/wiki/Special:FilePath/University%20of%20Amsterdam%20235%202094.jpg",
    "lon": 4.890277777,
    "lat": 52.36833333,
    "lat_lon": "52.368333333,4.890277777",
    "": "point(52.368333333",
    "__1": "4.890277777)"
  },
  {
    "university": "http://www.wikidata.org/entity/Q171249",
    "universityLabel": "National Aerospace University – Kharkiv Aviation Institute",
    "inception": "1930-01-01T00:00:00Z",
    "located_in_the_administrative_territorial_entity": "http://www.wikidata.org/entity/Q42308",
    "located_in_the_administrative_territorial_entityLabel": "Kharkiv",
    "country": "http://www.wikidata.org/entity/Q212",
    "countryLabel": "Ukraine",
    "students_count": 11000,
    "image": "http://commons.wikimedia.org/wiki/Special:FilePath/%D0%A1%D1%82%D1%83%D0%B4%D0%B5%D0%BD%D1%82%D1%81%D0%BA%D0%B8%D0%B9%20%D0%B3%D0%BE%D1%80%D0%BE%D0%B4%D0%BE%D0%BA%20%D0%A5%D0%90%D0%98.jpg",
    "lon": 36.286,
    "lat": 50.042,
    "lat_lon": "50.042,36.286",
    "": "",
    "__1": ""
  },
  {
    "university": "http://www.wikidata.org/entity/Q212528",
    "universityLabel": "University of Texas at Tyler",
    "inception": "1971-01-01T00:00:00Z",
    "located_in_the_administrative_territorial_entity": "http://www.wikidata.org/entity/Q499169",
    "located_in_the_administrative_territorial_entityLabel": "Tyler",
    "country": "http://www.wikidata.org/entity/Q30",
    "countryLabel": "United States of America",
    "students_count": 9781,
    "image": "http://commons.wikimedia.org/wiki/Special:FilePath/UT%20Tyler%20Riter%20Tower.jpg",
    "lon": -95.2519,
    "lat": 32.3173,
    "lat_lon": "32.3173,-95.2519",
    "": "",
    "__1": ""
  },
  {
    "university": "http://www.wikidata.org/entity/Q113788",
    "universityLabel": "Kazan Federal University",
    "inception": "1804-11-17T00:00:00Z",
    "located_in_the_administrative_territorial_entity": "http://www.wikidata.org/entity/Q900",
    "located_in_the_administrative_territorial_entityLabel": "Kazan",
    "country": "http://www.wikidata.org/entity/Q159",
    "countryLabel": "Russia",
    "students_count": 44992,
    "image": "http://commons.wikimedia.org/wiki/Special:FilePath/Kazan%20State%20University%20from%20the%202%20Korpus.jpg",
    "lon": 49.12191111,
    "lat": 55.79075,
    "lat_lon": "55.79075,49.121911111",
    "": "",
    "__1": ""
  },
  {
    "university": "http://www.wikidata.org/entity/Q130965",
    "universityLabel": "Fordham University",
    "inception": "1841-01-01T00:00:00Z",
    "located_in_the_administrative_territorial_entity": "http://www.wikidata.org/entity/Q11299",
    "located_in_the_administrative_territorial_entityLabel": "Manhattan",
    "country": "http://www.wikidata.org/entity/Q30",
    "countryLabel": "United States of America",
    "students_count": 16364,
    "image": "http://commons.wikimedia.org/wiki/Special:FilePath/Fordham%20University%20Keating%20Hall.JPG",
    "lon": -73.88575235,
    "lat": 40.86282744,
    "lat_lon": "40.86282744,-73.885752346",
    "": "",
    "__1": ""
  },
  {
    "university": "http://www.wikidata.org/entity/Q130965",
    "universityLabel": "Fordham University",
    "inception": "1841-01-01T00:00:00Z",
    "located_in_the_administrative_territorial_entity": "http://www.wikidata.org/entity/Q11299",
    "located_in_the_administrative_territorial_entityLabel": "Manhattan",
    "country": "http://www.wikidata.org/entity/Q30",
    "countryLabel": "United States of America",
    "students_count": 16986,
    "image": "http://commons.wikimedia.org/wiki/Special:FilePath/Fordham%20University%20Keating%20Hall.JPG",
    "lon": -73.88575235,
    "lat": 40.86282744,
    "lat_lon": "40.86282744,-73.885752346",
    "": "",
    "__1": ""
  },
  {
    "university": "http://www.wikidata.org/entity/Q170027",
    "universityLabel": "University of London",
    "inception": "1836-01-01T00:00:00Z",
    "located_in_the_administrative_territorial_entity": "http://www.wikidata.org/entity/Q84",
    "located_in_the_administrative_territorial_entityLabel": "London",
    "country": "http://www.wikidata.org/entity/Q145",
    "countryLabel": "United Kingdom",
    "students_count": 45500,
    "image": "http://commons.wikimedia.org/wiki/Special:FilePath/Senate%20House%20UoL.jpg",
    "lon": -0.1308206,
    "lat": 51.5229378,
    "lat_lon": "51.5229378,-0.1308206",
    "": "",
    "__1": ""
  },
  {
    "university": "http://www.wikidata.org/entity/Q219317",
    "universityLabel": "University of Pavia",
    "inception": "1361-01-01T00:00:00Z",
    "located_in_the_administrative_territorial_entity": "http://www.wikidata.org/entity/Q6259",
    "located_in_the_administrative_territorial_entityLabel": "Pavia",
    "country": "http://www.wikidata.org/entity/Q38",
    "countryLabel": "Italy",
    "students_count": 23849,
    "image": "http://commons.wikimedia.org/wiki/Special:FilePath/Aula%20magna-University-Pavia-Italy.jpg",
    "lon": 9.15586,
    "lat": 45.18675,
    "lat_lon": "45.18675,9.15586",
    "": "",
    "__1": ""
  },
  {
    "university": "http://www.wikidata.org/entity/Q156598",
    "universityLabel": "Leiden University",
    "inception": "1575-01-01T00:00:00Z",
    "located_in_the_administrative_territorial_entity": "http://www.wikidata.org/entity/Q43631",
    "located_in_the_administrative_territorial_entityLabel": "Leiden",
    "country": "http://www.wikidata.org/entity/Q55",
    "countryLabel": "Netherlands",
    "students_count": 27713,
    "image": "http://commons.wikimedia.org/wiki/Special:FilePath/Leiden%20-%20Rapenburg%2073.jpg",
    "lon": 4.485277777,
    "lat": 52.15694444,
    "lat_lon": "52.156944444,4.485277777",
    "": "",
    "__1": ""
  },
  {
    "university": "http://www.wikidata.org/entity/Q178200",
    "universityLabel": "Klaipėda University",
    "inception": "1991-01-01T00:00:00Z",
    "located_in_the_administrative_territorial_entity": "http://www.wikidata.org/entity/Q776965",
    "located_in_the_administrative_territorial_entityLabel": "Klaipėda",
    "country": "http://www.wikidata.org/entity/Q37",
    "countryLabel": "Lithuania",
    "students_count": 10000,
    "image": "http://commons.wikimedia.org/wiki/Special:FilePath/Manto%2084%20rektoratas%202.jpg",
    "lon": 21.12377778,
    "lat": 55.72458333,
    "lat_lon": "55.72458333,21.12377778",
    "": "",
    "__1": ""
  },
  {
    "university": "http://www.wikidata.org/entity/Q188370",
    "universityLabel": "Marquette University",
    "inception": "1881-08-28T00:00:00Z",
    "located_in_the_administrative_territorial_entity": "http://www.wikidata.org/entity/Q37836",
    "located_in_the_administrative_territorial_entityLabel": "Milwaukee",
    "country": "http://www.wikidata.org/entity/Q30",
    "countryLabel": "United States of America",
    "students_count": 12002,
    "image": "http://commons.wikimedia.org/wiki/Special:FilePath/Marquette%20University%20Law%20School%2C%20Sunrise.png",
    "lon": -87.9325,
    "lat": 43.03916667,
    "lat_lon": "43.039166666,-87.9325",
    "": "",
    "__1": ""
  },
  {
    "university": "http://www.wikidata.org/entity/Q127745",
    "universityLabel": "L. N. Gumilyov Eurasian National University",
    "inception": "1996-01-01T00:00:00Z",
    "located_in_the_administrative_territorial_entity": "http://www.wikidata.org/entity/Q1520",
    "located_in_the_administrative_territorial_entityLabel": "Astana",
    "country": "http://www.wikidata.org/entity/Q232",
    "countryLabel": "Kazakhstan",
    "students_count": 11300,
    "image": "http://commons.wikimedia.org/wiki/Special:FilePath/L.N.Gumilyov%20Eurasian%20National%20University.JPG",
    "lon": 71.4648,
    "lat": 51.1602,
    "lat_lon": "51.1602,71.4648",
    "": "",
    "__1": ""
  },
  {
    "university": "http://www.wikidata.org/entity/Q190336",
    "universityLabel": "Minzu University of China",
    "inception": "1951-01-01T00:00:00Z",
    "located_in_the_administrative_territorial_entity": "http://www.wikidata.org/entity/Q207072",
    "located_in_the_administrative_territorial_entityLabel": "Zizhuyuan Subdistrict",
    "country": "http://www.wikidata.org/entity/Q148",
    "countryLabel": "People's Republic of China",
    "students_count": 15800,
    "image": "http://commons.wikimedia.org/wiki/Special:FilePath/1952-06%20%E4%B8%AD%E5%A4%AE%E6%B0%91%E6%97%8F%E5%AD%A6%E9%99%A2%201952%E5%B9%B4.png",
    "lon": 116.3175,
    "lat": 39.94833333,
    "lat_lon": "39.948333333,116.3175",
    "": "",
    "__1": ""
  },
  {
    "university": "http://www.wikidata.org/entity/Q190336",
    "universityLabel": "Minzu University of China",
    "inception": "1951-01-01T00:00:00Z",
    "located_in_the_administrative_territorial_entity": "http://www.wikidata.org/entity/Q207072",
    "located_in_the_administrative_territorial_entityLabel": "Zizhuyuan Subdistrict",
    "country": "http://www.wikidata.org/entity/Q148",
    "countryLabel": "People's Republic of China",
    "students_count": 15800,
    "image": "http://commons.wikimedia.org/wiki/Special:FilePath/Minzu%20University%20of%20China%20%2820170330115818%29.jpg",
    "lon": 116.3175,
    "lat": 39.94833333,
    "lat_lon": "39.948333333,116.3175",
    "": "",
    "__1": ""
  },
  {
    "university": "http://www.wikidata.org/entity/Q149990",
    "universityLabel": "University of Rochester",
    "inception": "1850-01-01T00:00:00Z",
    "located_in_the_administrative_territorial_entity": "http://www.wikidata.org/entity/Q49218",
    "located_in_the_administrative_territorial_entityLabel": "Rochester",
    "country": "http://www.wikidata.org/entity/Q30",
    "countryLabel": "United States of America",
    "students_count": 11741,
    "image": "http://commons.wikimedia.org/wiki/Special:FilePath/BMEopticsCSB.jpg",
    "lon": -77.628333,
    "lat": 43.128333,
    "lat_lon": "43.128333,-77.628333",
    "": "",
    "__1": ""
  },
  {
    "university": "http://www.wikidata.org/entity/Q115376",
    "universityLabel": "West Virginia University",
    "inception": "1867-01-01T00:00:00Z",
    "located_in_the_administrative_territorial_entity": "http://www.wikidata.org/entity/Q653636",
    "located_in_the_administrative_territorial_entityLabel": "Morgantown",
    "country": "http://www.wikidata.org/entity/Q30",
    "countryLabel": "United States of America",
    "students_count": 26269,
    "image": "http://commons.wikimedia.org/wiki/Special:FilePath/Woodburn%20hall%20wvu.jpg",
    "lon": -79.95453,
    "lat": 39.63582,
    "lat_lon": "39.63582,-79.95453",
    "": "",
    "__1": ""
  },
  {
    "university": "http://www.wikidata.org/entity/Q193727",
    "universityLabel": "Johns Hopkins University",
    "inception": "1876-01-01T00:00:00Z",
    "located_in_the_administrative_territorial_entity": "http://www.wikidata.org/entity/Q5092",
    "located_in_the_administrative_territorial_entityLabel": "Baltimore",
    "country": "http://www.wikidata.org/entity/Q30",
    "countryLabel": "United States of America",
    "students_count": 25151,
    "image": "http://commons.wikimedia.org/wiki/Special:FilePath/Johns%20Hopkins%27%20Historic%20Dome%20-%20panoramio.jpg",
    "lon": -76.62055556,
    "lat": 39.32888889,
    "lat_lon": "39.328888888,-76.620555555",
    "": "",
    "__1": ""
  },
  {
    "university": "http://www.wikidata.org/entity/Q170027",
    "universityLabel": "University of London",
    "inception": "1836-01-01T00:00:00Z",
    "located_in_the_administrative_territorial_entity": "http://www.wikidata.org/entity/Q84",
    "located_in_the_administrative_territorial_entityLabel": "London",
    "country": "http://www.wikidata.org/entity/Q145",
    "countryLabel": "United Kingdom",
    "students_count": 45500,
    "image": "http://commons.wikimedia.org/wiki/Special:FilePath/Senate%20House%20UoL.jpg",
    "lon": -0.128888888,
    "lat": 51.52111111,
    "lat_lon": "51.521111111,-0.128888888",
    "": "",
    "__1": ""
  },
  {
    "university": "http://www.wikidata.org/entity/Q143451",
    "universityLabel": "University of Central Florida",
    "inception": "1963-01-01T00:00:00Z",
    "located_in_the_administrative_territorial_entity": "http://www.wikidata.org/entity/Q49233",
    "located_in_the_administrative_territorial_entityLabel": "Orlando",
    "country": "http://www.wikidata.org/entity/Q30",
    "countryLabel": "United States of America",
    "students_count": 58913,
    "image": "http://commons.wikimedia.org/wiki/Special:FilePath/Reflection%20Pond%20%2816156764538%29.jpg",
    "lon": -81.2005,
    "lat": 28.6016,
    "lat_lon": "28.6016,-81.2005",
    "": "",
    "__1": ""
  },
  {
    "university": "http://www.wikidata.org/entity/Q179640",
    "universityLabel": "Catholic Private University Linz",
    "inception": "1978-01-01T00:00:00Z",
    "located_in_the_administrative_territorial_entity": "http://www.wikidata.org/entity/Q41329",
    "located_in_the_administrative_territorial_entityLabel": "Linz",
    "country": "http://www.wikidata.org/entity/Q40",
    "countryLabel": "Austria",
    "students_count": 438,
    "image": "http://commons.wikimedia.org/wiki/Special:FilePath/KU%20Linz%20Bethlehemstrasse%20Gebaeude.jpg",
    "lon": 14.29194444,
    "lat": 48.30388889,
    "lat_lon": "48.303888888,14.291944444",
    "": "",
    "__1": ""
  },
  {
    "university": "http://www.wikidata.org/entity/Q197543",
    "universityLabel": "Zhejiang University",
    "inception": "1897-05-21T00:00:00Z",
    "located_in_the_administrative_territorial_entity": "http://www.wikidata.org/entity/Q4970",
    "located_in_the_administrative_territorial_entityLabel": "Hangzhou",
    "country": "http://www.wikidata.org/entity/Q148",
    "countryLabel": "People's Republic of China",
    "students_count": 39000,
    "image": "http://commons.wikimedia.org/wiki/Special:FilePath/Administration%20Building%20of%20Zijingang%20Campus.jpg",
    "lon": 120.1208333,
    "lat": 30.26361111,
    "lat_lon": "30.263611111,120.120833333",
    "": "",
    "__1": ""
  },
  {
    "university": "http://www.wikidata.org/entity/Q216273",
    "universityLabel": "University of St Andrews",
    "inception": "1410-01-01T00:00:00Z",
    "located_in_the_administrative_territorial_entity": "http://www.wikidata.org/entity/Q201149",
    "located_in_the_administrative_territorial_entityLabel": "Fife",
    "country": "http://www.wikidata.org/entity/Q145",
    "countryLabel": "United Kingdom",
    "students_count": 8000,
    "image": "http://commons.wikimedia.org/wiki/Special:FilePath/St%20Andrews%20University%20Classics%20Building.jpg",
    "lon": -2.793011,
    "lat": 56.341214,
    "lat_lon": "56.341214,-2.793011",
    "": "",
    "__1": ""
  },
  {
    "university": "http://www.wikidata.org/entity/Q216273",
    "universityLabel": "University of St Andrews",
    "inception": "1410-01-01T00:00:00Z",
    "located_in_the_administrative_territorial_entity": "http://www.wikidata.org/entity/Q201149",
    "located_in_the_administrative_territorial_entityLabel": "Fife",
    "country": "http://www.wikidata.org/entity/Q145",
    "countryLabel": "United Kingdom",
    "students_count": 10425,
    "image": "http://commons.wikimedia.org/wiki/Special:FilePath/St%20Andrews%20University%20Classics%20Building.jpg",
    "lon": -2.793011,
    "lat": 56.341214,
    "lat_lon": "56.341214,-2.793011",
    "": "",
    "__1": ""
  },
  {
    "university": "http://www.wikidata.org/entity/Q195046",
    "universityLabel": "Worcester Polytechnic Institute",
    "inception": "1865-01-01T00:00:00Z",
    "located_in_the_administrative_territorial_entity": "http://www.wikidata.org/entity/Q49179",
    "located_in_the_administrative_territorial_entityLabel": "Worcester",
    "country": "http://www.wikidata.org/entity/Q30",
    "countryLabel": "United States of America",
    "students_count": 6920,
    "image": "http://commons.wikimedia.org/wiki/Special:FilePath/Wpi%20boytonhall.JPG",
    "lon": -71.80735,
    "lat": 42.27348889,
    "lat_lon": "42.273488888,-71.80735",
    "": "",
    "__1": ""
  },
  {
    "university": "http://www.wikidata.org/entity/Q165980",
    "universityLabel": "University of Vienna",
    "inception": "1365-03-20T00:00:00Z",
    "located_in_the_administrative_territorial_entity": "http://www.wikidata.org/entity/Q1741",
    "located_in_the_administrative_territorial_entityLabel": "Vienna",
    "country": "http://www.wikidata.org/entity/Q40",
    "countryLabel": "Austria",
    "students_count": 93628,
    "image": "http://commons.wikimedia.org/wiki/Special:FilePath/Wien%20-%20Universit%C3%A4t%20%282%29.JPG",
    "lon": 16.35972222,
    "lat": 48.21305556,
    "lat_lon": "48.213055555,16.359722222",
    "": "",
    "__1": ""
  },
  {
    "university": "http://www.wikidata.org/entity/Q161562",
    "universityLabel": "California Institute of Technology",
    "inception": "1891-01-01T00:00:00Z",
    "located_in_the_administrative_territorial_entity": "http://www.wikidata.org/entity/Q485176",
    "located_in_the_administrative_territorial_entityLabel": "Pasadena",
    "country": "http://www.wikidata.org/entity/Q30",
    "countryLabel": "United States of America",
    "students_count": 2238,
    "image": "http://commons.wikimedia.org/wiki/Special:FilePath/Caltech%20Entrance.jpg",
    "lon": -118.125,
    "lat": 34.1375,
    "lat_lon": "34.1375,-118.125",
    "": "",
    "__1": ""
  },
  {
    "university": "http://www.wikidata.org/entity/Q194445",
    "universityLabel": "Cairo University",
    "inception": "1908-01-01T00:00:00Z",
    "located_in_the_administrative_territorial_entity": "http://www.wikidata.org/entity/Q81788",
    "located_in_the_administrative_territorial_entityLabel": "Giza",
    "country": "http://www.wikidata.org/entity/Q79",
    "countryLabel": "Egypt",
    "students_count": 257200,
    "image": "http://commons.wikimedia.org/wiki/Special:FilePath/%D8%AC%D8%A7%D9%85%D8%B9%D8%A9%20%D8%A7%D9%84%D9%82%D8%A7%D9%87%D8%B1%D8%A9.jpg",
    "lon": 31.21014,
    "lat": 30.0276,
    "lat_lon": "30.0276,31.21014",
    "": "",
    "__1": ""
  },
  {
    "university": "http://www.wikidata.org/entity/Q144488",
    "universityLabel": "University of Warsaw",
    "inception": "1816-01-01T00:00:00Z",
    "located_in_the_administrative_territorial_entity": "http://www.wikidata.org/entity/Q270",
    "located_in_the_administrative_territorial_entityLabel": "Warsaw",
    "country": "http://www.wikidata.org/entity/Q36",
    "countryLabel": "Poland",
    "students_count": 42700,
    "image": "http://commons.wikimedia.org/wiki/Special:FilePath/Warszawa%2C%20ul.%20Krakowskie%20Przedmie%C5%9Bcie%2026%2C%2028%2020170517%20001.jpg",
    "lon": 21.01916944,
    "lat": 52.24028056,
    "lat_lon": "52.240280555,21.019169444",
    "": "",
    "__1": ""
  },
  {
    "university": "http://www.wikidata.org/entity/Q219564",
    "universityLabel": "Karolinska Institute",
    "inception": "1810-01-01T00:00:00Z",
    "located_in_the_administrative_territorial_entity": "http://www.wikidata.org/entity/Q109010",
    "located_in_the_administrative_territorial_entityLabel": "Solna Municipality",
    "country": "http://www.wikidata.org/entity/Q34",
    "countryLabel": "Sweden",
    "students_count": 6000,
    "image": "http://commons.wikimedia.org/wiki/Special:FilePath/Karolinska%20Institutet%2C%20infart%20fr%C3%A5n%20Solnav%C3%A4gen%2020060723.jpg",
    "lon": 18.02666667,
    "lat": 59.34888889,
    "lat_lon": "59.348888888,18.026666666",
    "": "",
    "__1": ""
  },
  {
    "university": "http://www.wikidata.org/entity/Q219564",
    "universityLabel": "Karolinska Institute",
    "inception": "1810-01-01T00:00:00Z",
    "located_in_the_administrative_territorial_entity": "http://www.wikidata.org/entity/Q109010",
    "located_in_the_administrative_territorial_entityLabel": "Solna Municipality",
    "country": "http://www.wikidata.org/entity/Q34",
    "countryLabel": "Sweden",
    "students_count": 8070,
    "image": "http://commons.wikimedia.org/wiki/Special:FilePath/Karolinska%20Institutet%2C%20infart%20fr%C3%A5n%20Solnav%C3%A4gen%2020060723.jpg",
    "lon": 18.02666667,
    "lat": 59.34888889,
    "lat_lon": "59.348888888,18.026666666",
    "": "",
    "__1": ""
  },
  {
    "university": "http://www.wikidata.org/entity/Q109176",
    "universityLabel": "Andrews University",
    "inception": "1874-01-01T00:00:00Z",
    "located_in_the_administrative_territorial_entity": "http://www.wikidata.org/entity/Q1166",
    "located_in_the_administrative_territorial_entityLabel": "Michigan",
    "country": "http://www.wikidata.org/entity/Q30",
    "countryLabel": "United States of America",
    "students_count": 3162,
    "image": "http://commons.wikimedia.org/wiki/Special:FilePath/Andrews%20University.jpg",
    "lon": -86.358,
    "lat": 41.963,
    "lat_lon": "41.963,-86.358",
    "": "",
    "__1": ""
  },
  {
    "university": "http://www.wikidata.org/entity/Q174710",
    "universityLabel": "University of California, Los Angeles",
    "inception": "1919-07-24T00:00:00Z",
    "located_in_the_administrative_territorial_entity": "http://www.wikidata.org/entity/Q65",
    "located_in_the_administrative_territorial_entityLabel": "Los Angeles",
    "country": "http://www.wikidata.org/entity/Q30",
    "countryLabel": "United States of America",
    "students_count": 44589,
    "image": "http://commons.wikimedia.org/wiki/Special:FilePath/Royce%20Hall%2C%20University%20of%20California%2C%20Los%20Angeles%20%2823-09-2003%29.jpg",
    "lon": -118.4441667,
    "lat": 34.07222222,
    "lat_lon": "34.072222222,-118.444166666",
    "": "",
    "__1": ""
  },
  {
    "university": "http://www.wikidata.org/entity/Q137503",
    "universityLabel": "University of Łódź",
    "inception": "1945-01-01T00:00:00Z",
    "located_in_the_administrative_territorial_entity": "http://www.wikidata.org/entity/Q580",
    "located_in_the_administrative_territorial_entityLabel": "Łódź",
    "country": "http://www.wikidata.org/entity/Q36",
    "countryLabel": "Poland",
    "students_count": 38000,
    "image": "http://commons.wikimedia.org/wiki/Special:FilePath/O%20i%20Z%20UL.jpg",
    "lon": 19.4740065,
    "lat": 51.7720775,
    "lat_lon": "51.7720775,19.4740065",
    "": "",
    "__1": ""
  },
  {
    "university": "http://www.wikidata.org/entity/Q222738",
    "universityLabel": "National Autonomous University of Mexico",
    "inception": "1910-09-22T00:00:00Z",
    "located_in_the_administrative_territorial_entity": "http://www.wikidata.org/entity/Q1489",
    "located_in_the_administrative_territorial_entityLabel": "Mexico City",
    "country": "http://www.wikidata.org/entity/Q96",
    "countryLabel": "Mexico",
    "students_count": 360883,
    "image": "http://commons.wikimedia.org/wiki/Special:FilePath/CU-Mexico-rectoria-1.jpg",
    "lon": -99.18722222,
    "lat": 19.32888889,
    "lat_lon": "19.328888888,-99.187222222",
    "": "",
    "__1": ""
  },
  {
    "university": "http://www.wikidata.org/entity/Q129421",
    "universityLabel": "University of California, Davis",
    "inception": "1905-01-01T00:00:00Z",
    "located_in_the_administrative_territorial_entity": "http://www.wikidata.org/entity/Q668546",
    "located_in_the_administrative_territorial_entityLabel": "Davis",
    "country": "http://www.wikidata.org/entity/Q30",
    "countryLabel": "United States of America",
    "students_count": 39074,
    "image": "http://commons.wikimedia.org/wiki/Special:FilePath/Aerial%20view%20of%20UC%20Davis.jpg",
    "lon": -121.75,
    "lat": 38.54,
    "lat_lon": "38.54,-121.75",
    "": "",
    "__1": ""
  },
  {
    "university": "http://www.wikidata.org/entity/Q137360",
    "universityLabel": "Omsk State Agrarian University",
    "inception": "1918-01-01T00:00:00Z",
    "located_in_the_administrative_territorial_entity": "http://www.wikidata.org/entity/Q898",
    "located_in_the_administrative_territorial_entityLabel": "Omsk",
    "country": "http://www.wikidata.org/entity/Q159",
    "countryLabel": "Russia",
    "students_count": 9000,
    "image": "http://commons.wikimedia.org/wiki/Special:FilePath/Agraruni%20Omsk.JPG",
    "lon": 73.312658,
    "lat": 55.022684,
    "lat_lon": "55.022684,73.312658",
    "": "",
    "__1": ""
  },
  {
    "university": "http://www.wikidata.org/entity/Q168751",
    "universityLabel": "Duke University",
    "inception": "1838-01-01T00:00:00Z",
    "located_in_the_administrative_territorial_entity": "http://www.wikidata.org/entity/Q428298",
    "located_in_the_administrative_territorial_entityLabel": "Durham County",
    "country": "http://www.wikidata.org/entity/Q30",
    "countryLabel": "United States of America",
    "students_count": 14832,
    "image": "http://commons.wikimedia.org/wiki/Special:FilePath/Duke%20Chapel%204%2016%2005.jpg",
    "lon": -78.93888889,
    "lat": 36.00111111,
    "lat_lon": "36.001111111,-78.938888888",
    "": "",
    "__1": ""
  },
  {
    "university": "http://www.wikidata.org/entity/Q221645",
    "universityLabel": "Stockholm University",
    "inception": "1878-01-01T00:00:00Z",
    "located_in_the_administrative_territorial_entity": "http://www.wikidata.org/entity/Q506250",
    "located_in_the_administrative_territorial_entityLabel": "Stockholm Municipality",
    "country": "http://www.wikidata.org/entity/Q34",
    "countryLabel": "Sweden",
    "students_count": 22400,
    "image": "http://commons.wikimedia.org/wiki/Special:FilePath/Stockholms%20universitet%20-%20KMB%20-%2016000300026090.jpg",
    "lon": 18.06055556,
    "lat": 59.36305556,
    "lat_lon": "59.363055555,18.060555555",
    "": "",
    "__1": ""
  },
  {
    "university": "http://www.wikidata.org/entity/Q144488",
    "universityLabel": "University of Warsaw",
    "inception": "1816-11-19T00:00:00Z",
    "located_in_the_administrative_territorial_entity": "http://www.wikidata.org/entity/Q270",
    "located_in_the_administrative_territorial_entityLabel": "Warsaw",
    "country": "http://www.wikidata.org/entity/Q36",
    "countryLabel": "Poland",
    "students_count": 42700,
    "image": "http://commons.wikimedia.org/wiki/Special:FilePath/Warszawa%2C%20ul.%20Krakowskie%20Przedmie%C5%9Bcie%2026%2C%2028%2020170517%20001.jpg",
    "lon": 21.01916944,
    "lat": 52.24028056,
    "lat_lon": "52.240280555,21.019169444",
    "": "",
    "__1": ""
  },
  {
    "university": "http://www.wikidata.org/entity/Q221645",
    "universityLabel": "Stockholm University",
    "inception": "1878-01-01T00:00:00Z",
    "located_in_the_administrative_territorial_entity": "http://www.wikidata.org/entity/Q506250",
    "located_in_the_administrative_territorial_entityLabel": "Stockholm Municipality",
    "country": "http://www.wikidata.org/entity/Q34",
    "countryLabel": "Sweden",
    "students_count": 37484,
    "image": "http://commons.wikimedia.org/wiki/Special:FilePath/Stockholms%20universitet%20-%20KMB%20-%2016000300026090.jpg",
    "lon": 18.06055556,
    "lat": 59.36305556,
    "lat_lon": "59.363055555,18.060555555",
    "": "",
    "__1": ""
  },
  {
    "university": "http://www.wikidata.org/entity/Q172430",
    "universityLabel": "Loyola University New Orleans",
    "inception": "1904-01-01T00:00:00Z",
    "located_in_the_administrative_territorial_entity": "http://www.wikidata.org/entity/Q34404",
    "located_in_the_administrative_territorial_entityLabel": "New Orleans",
    "country": "http://www.wikidata.org/entity/Q30",
    "countryLabel": "United States of America",
    "students_count": 4497,
    "image": "http://commons.wikimedia.org/wiki/Special:FilePath/Loyola%20front%20yard.jpg",
    "lon": -90.12083333,
    "lat": 29.935,
    "lat_lon": "29.935,-90.120833333",
    "": "",
    "__1": ""
  },
  {
    "university": "http://www.wikidata.org/entity/Q170027",
    "universityLabel": "University of London",
    "inception": "1836-01-01T00:00:00Z",
    "located_in_the_administrative_territorial_entity": "http://www.wikidata.org/entity/Q202088",
    "located_in_the_administrative_territorial_entityLabel": "London Borough of Camden",
    "country": "http://www.wikidata.org/entity/Q145",
    "countryLabel": "United Kingdom",
    "students_count": 45500,
    "image": "http://commons.wikimedia.org/wiki/Special:FilePath/Senate%20House%20UoL.jpg",
    "lon": -0.1308206,
    "lat": 51.5229378,
    "lat_lon": "51.5229378,-0.1308206",
    "": "",
    "__1": ""
  },
  {
    "university": "http://www.wikidata.org/entity/Q196559",
    "universityLabel": "University of Iceland",
    "inception": "1911-01-01T00:00:00Z",
    "located_in_the_administrative_territorial_entity": "http://www.wikidata.org/entity/Q1764",
    "located_in_the_administrative_territorial_entityLabel": "Reykjavík",
    "country": "http://www.wikidata.org/entity/Q189",
    "countryLabel": "Iceland",
    "students_count": 14000,
    "image": "http://commons.wikimedia.org/wiki/Special:FilePath/Islands%20universitet%202009-01-28%20%281%29.jpg",
    "lon": -21.94944444,
    "lat": 64.14055556,
    "lat_lon": "64.140555555,-21.949444444",
    "": "",
    "__1": ""
  },
  {
    "university": "http://www.wikidata.org/entity/Q137355",
    "universityLabel": "Voronezh State Agrarian University",
    "inception": "1912-01-01T00:00:00Z",
    "located_in_the_administrative_territorial_entity": "http://www.wikidata.org/entity/Q3426",
    "located_in_the_administrative_territorial_entityLabel": "Voronezh",
    "country": "http://www.wikidata.org/entity/Q159",
    "countryLabel": "Russia",
    "students_count": 16000,
    "image": "http://commons.wikimedia.org/wiki/Special:FilePath/%D0%92%D0%93%D0%90%D0%A3.jpeg",
    "lon": 39.226287,
    "lat": 51.713293,
    "lat_lon": "51.713293,39.226287",
    "": "",
    "__1": ""
  },
  {
    "university": "http://www.wikidata.org/entity/Q168458",
    "universityLabel": "Universidade Autónoma de Lisboa",
    "inception": "1985-01-01T00:00:00Z",
    "located_in_the_administrative_territorial_entity": "http://www.wikidata.org/entity/Q597",
    "located_in_the_administrative_territorial_entityLabel": "Lisbon",
    "country": "http://www.wikidata.org/entity/Q45",
    "countryLabel": "Portugal",
    "students_count": 4500,
    "image": "http://commons.wikimedia.org/wiki/Special:FilePath/Universidade%20Auton%C3%B3ma%20de%20Lisboa%20-%20Luis%20de%20Cam%C3%B5es.jpg",
    "lon": -9.14577,
    "lat": 38.7245,
    "lat_lon": "38.7245,-9.14577",
    "": "",
    "__1": ""
  },
  {
    "university": "http://www.wikidata.org/entity/Q170027",
    "universityLabel": "University of London",
    "inception": "1836-01-01T00:00:00Z",
    "located_in_the_administrative_territorial_entity": "http://www.wikidata.org/entity/Q202088",
    "located_in_the_administrative_territorial_entityLabel": "London Borough of Camden",
    "country": "http://www.wikidata.org/entity/Q145",
    "countryLabel": "United Kingdom",
    "students_count": 45500,
    "image": "http://commons.wikimedia.org/wiki/Special:FilePath/Senate%20House%20UoL.jpg",
    "lon": -0.128888888,
    "lat": 51.52111111,
    "lat_lon": "51.521111111,-0.128888888",
    "": "",
    "__1": ""
  },
  {
    "university": "http://www.wikidata.org/entity/Q218506",
    "universityLabel": "Lund University",
    "inception": "1666-12-19T00:00:00Z",
    "located_in_the_administrative_territorial_entity": "http://www.wikidata.org/entity/Q505018",
    "located_in_the_administrative_territorial_entityLabel": "Lund Municipality",
    "country": "http://www.wikidata.org/entity/Q34",
    "countryLabel": "Sweden",
    "students_count": 40000,
    "image": "http://commons.wikimedia.org/wiki/Special:FilePath/Universitetsbyggnaden%2C%20Lund.JPG",
    "lon": 13.19333333,
    "lat": 55.70583333,
    "lat_lon": "55.705833333,13.193333333",
    "": "",
    "__1": ""
  },
  {
    "university": "http://www.wikidata.org/entity/Q215539",
    "universityLabel": "Moscow Conservatory",
    "inception": "1866-09-01T00:00:00Z",
    "located_in_the_administrative_territorial_entity": "http://www.wikidata.org/entity/Q649",
    "located_in_the_administrative_territorial_entityLabel": "Moscow",
    "country": "http://www.wikidata.org/entity/Q159",
    "countryLabel": "Russia",
    "students_count": 526,
    "image": "http://commons.wikimedia.org/wiki/Special:FilePath/Moscow%2005-2017%20img41%20Conservatory.jpg",
    "lon": 37.60444444,
    "lat": 55.75638889,
    "lat_lon": "55.756388888,37.604444444",
    "": "",
    "__1": ""
  },
  {
    "university": "http://www.wikidata.org/entity/Q193510",
    "universityLabel": "University of Padua",
    "inception": "1222-01-01T00:00:00Z",
    "located_in_the_administrative_territorial_entity": "http://www.wikidata.org/entity/Q617",
    "located_in_the_administrative_territorial_entityLabel": "Padua",
    "country": "http://www.wikidata.org/entity/Q38",
    "countryLabel": "Italy",
    "students_count": 62876,
    "image": "http://commons.wikimedia.org/wiki/Special:FilePath/Palazzo%20Bo%20%28Padua%29.jpg",
    "lon": 11.87,
    "lat": 45.42,
    "lat_lon": "45.42,11.87",
    "": "",
    "__1": ""
  },
  {
    "university": "http://www.wikidata.org/entity/Q130965",
    "universityLabel": "Fordham University",
    "inception": "1841-01-01T00:00:00Z",
    "located_in_the_administrative_territorial_entity": "http://www.wikidata.org/entity/Q60",
    "located_in_the_administrative_territorial_entityLabel": "New York City",
    "country": "http://www.wikidata.org/entity/Q30",
    "countryLabel": "United States of America",
    "students_count": 16364,
    "image": "http://commons.wikimedia.org/wiki/Special:FilePath/Fordham%20University%20Keating%20Hall.JPG",
    "lon": -73.88575235,
    "lat": 40.86282744,
    "lat_lon": "40.86282744,-73.885752346",
    "": "",
    "__1": ""
  },
  {
    "university": "http://www.wikidata.org/entity/Q130965",
    "universityLabel": "Fordham University",
    "inception": "1841-01-01T00:00:00Z",
    "located_in_the_administrative_territorial_entity": "http://www.wikidata.org/entity/Q60",
    "located_in_the_administrative_territorial_entityLabel": "New York City",
    "country": "http://www.wikidata.org/entity/Q30",
    "countryLabel": "United States of America",
    "students_count": 16986,
    "image": "http://commons.wikimedia.org/wiki/Special:FilePath/Fordham%20University%20Keating%20Hall.JPG",
    "lon": -73.88575235,
    "lat": 40.86282744,
    "lat_lon": "40.86282744,-73.885752346",
    "": "",
    "__1": ""
  },
  {
    "university": "http://www.wikidata.org/entity/Q178972",
    "universityLabel": "Sun Yat-sen University",
    "inception": "1924-01-01T00:00:00Z",
    "located_in_the_administrative_territorial_entity": "http://www.wikidata.org/entity/Q16572",
    "located_in_the_administrative_territorial_entityLabel": "Guangzhou",
    "country": "http://www.wikidata.org/entity/Q148",
    "countryLabel": "People's Republic of China",
    "students_count": 65638,
    "image": "http://commons.wikimedia.org/wiki/Special:FilePath/Zhongda%20ZH3.jpg",
    "lon": 113.2994444,
    "lat": 23.09666667,
    "lat_lon": "23.09666667,113.29944444",
    "": "",
    "__1": ""
  },
  {
    "university": "http://www.wikidata.org/entity/Q185246",
    "universityLabel": "Uppsala University",
    "inception": "1477-01-01T00:00:00Z",
    "located_in_the_administrative_territorial_entity": "http://www.wikidata.org/entity/Q59091",
    "located_in_the_administrative_territorial_entityLabel": "Uppsala Municipality",
    "country": "http://www.wikidata.org/entity/Q34",
    "countryLabel": "Sweden",
    "students_count": 35556,
    "image": "http://commons.wikimedia.org/wiki/Special:FilePath/Universitas%20Regia%20Upsaliensis.jpg",
    "lon": 17.62888889,
    "lat": 59.8575,
    "lat_lon": "59.8575,17.628888888",
    "": "",
    "__1": ""
  },
  {
    "university": "http://www.wikidata.org/entity/Q175529",
    "universityLabel": "John Paul II Catholic University of Lublin",
    "inception": "1918-01-01T00:00:00Z",
    "located_in_the_administrative_territorial_entity": "http://www.wikidata.org/entity/Q37333",
    "located_in_the_administrative_territorial_entityLabel": "Lublin",
    "country": "http://www.wikidata.org/entity/Q36",
    "countryLabel": "Poland",
    "students_count": 20317,
    "image": "http://commons.wikimedia.org/wiki/Special:FilePath/Lublin%2Ckul%2Ccollegium.JPG",
    "lon": 22.54472222,
    "lat": 51.24777778,
    "lat_lon": "51.247777777,22.544722222",
    "": "",
    "__1": ""
  },
  {
    "university": "http://www.wikidata.org/entity/Q174158",
    "universityLabel": "Hebrew University of Jerusalem",
    "inception": "1918-01-01T00:00:00Z",
    "located_in_the_administrative_territorial_entity": "http://www.wikidata.org/entity/Q1218",
    "located_in_the_administrative_territorial_entityLabel": "Jerusalem",
    "country": "http://www.wikidata.org/entity/Q801",
    "countryLabel": "Israel",
    "students_count": 22000,
    "image": "http://commons.wikimedia.org/wiki/Special:FilePath/Hebrew%20University%20Jerusalem%20IL%20WV.JPG",
    "lon": 35.2,
    "lat": 31.77583333,
    "lat_lon": "31.775833333,35.2",
    "": "",
    "__1": ""
  },
  {
    "university": "http://www.wikidata.org/entity/Q405304",
    "universityLabel": "Nayoro City University",
    "inception": "1960-01-01T00:00:00Z",
    "located_in_the_administrative_territorial_entity": "http://www.wikidata.org/entity/Q820725",
    "located_in_the_administrative_territorial_entityLabel": "Nayoro",
    "country": "http://www.wikidata.org/entity/Q17",
    "countryLabel": "Japan",
    "students_count": 778,
    "image": "http://commons.wikimedia.org/wiki/Special:FilePath/Nayoro-City-University%20Building.jpg",
    "lon": 142.4611,
    "lat": 44.3644,
    "lat_lon": "44.3644,142.4611",
    "": "",
    "__1": ""
  },
  {
    "university": "http://www.wikidata.org/entity/Q75478",
    "universityLabel": "New York University Tandon School of Engineering",
    "inception": "1854-01-01T00:00:00Z",
    "located_in_the_administrative_territorial_entity": "http://www.wikidata.org/entity/Q18419",
    "located_in_the_administrative_territorial_entityLabel": "Brooklyn",
    "country": "http://www.wikidata.org/entity/Q30",
    "countryLabel": "United States of America",
    "students_count": 2800,
    "image": "http://commons.wikimedia.org/wiki/Special:FilePath/First%20Free%20Congregational%20Poly%20jeh.jpg",
    "lon": -73.9865,
    "lat": 40.6944,
    "lat_lon": "40.6944,-73.9865",
    "": "",
    "__1": ""
  },
  {
    "university": "http://www.wikidata.org/entity/Q521612",
    "universityLabel": "Folkwang University of the Arts",
    "inception": "1927-01-01T00:00:00Z",
    "located_in_the_administrative_territorial_entity": "http://www.wikidata.org/entity/Q2066",
    "located_in_the_administrative_territorial_entityLabel": "Essen",
    "country": "http://www.wikidata.org/entity/Q183",
    "countryLabel": "Germany",
    "students_count": 1506,
    "image": "http://commons.wikimedia.org/wiki/Special:FilePath/Essen%20Kloster%20Werden%20Innenhof%202%202005.jpg",
    "lon": 7.00444,
    "lat": 51.3875,
    "lat_lon": "51.3875,7.00444",
    "": "",
    "__1": ""
  },
  {
    "university": "http://www.wikidata.org/entity/Q469476",
    "universityLabel": "The American University in Cairo",
    "inception": "1919-01-01T00:00:00Z",
    "located_in_the_administrative_territorial_entity": "http://www.wikidata.org/entity/Q30805",
    "located_in_the_administrative_territorial_entityLabel": "Cairo Governorate",
    "country": "http://www.wikidata.org/entity/Q79",
    "countryLabel": "Egypt",
    "students_count": 6824,
    "image": "http://commons.wikimedia.org/wiki/Special:FilePath/American%20University%20in%20Cairo.JPG",
    "lon": 31.50034444,
    "lat": 30.01994444,
    "lat_lon": "30.019944444,31.500344444",
    "": "",
    "__1": ""
  },
  {
    "university": "http://www.wikidata.org/entity/Q547867",
    "universityLabel": "National and Kapodistrian University of Athens",
    "inception": "1837-04-24T00:00:00Z",
    "located_in_the_administrative_territorial_entity": "http://www.wikidata.org/entity/Q1224979",
    "located_in_the_administrative_territorial_entityLabel": "Athens Municipality",
    "country": "http://www.wikidata.org/entity/Q41",
    "countryLabel": "Greece",
    "students_count": 70461,
    "image": "http://commons.wikimedia.org/wiki/Special:FilePath/Universit%C3%A4t%20von%20Athen.jpg",
    "lon": 23.73395165,
    "lat": 37.98085747,
    "lat_lon": "37.980857465,23.733951653",
    "": "",
    "__1": ""
  },
  {
    "university": "http://www.wikidata.org/entity/Q547867",
    "universityLabel": "National and Kapodistrian University of Athens",
    "inception": "1837-04-24T00:00:00Z",
    "located_in_the_administrative_territorial_entity": "http://www.wikidata.org/entity/Q731909",
    "located_in_the_administrative_territorial_entityLabel": "Dafni-Ymittos Municipality",
    "country": "http://www.wikidata.org/entity/Q41",
    "countryLabel": "Greece",
    "students_count": 70461,
    "image": "http://commons.wikimedia.org/wiki/Special:FilePath/Universit%C3%A4t%20von%20Athen.jpg",
    "lon": 23.76516667,
    "lat": 37.98444444,
    "lat_lon": "37.984444444,23.765166666",
    "": "",
    "__1": ""
  },
  {
    "university": "http://www.wikidata.org/entity/Q289348",
    "universityLabel": "London South Bank University",
    "inception": "1892-01-01T00:00:00Z",
    "located_in_the_administrative_territorial_entity": "http://www.wikidata.org/entity/Q84",
    "located_in_the_administrative_territorial_entityLabel": "London",
    "country": "http://www.wikidata.org/entity/Q145",
    "countryLabel": "United Kingdom",
    "students_count": 17600,
    "image": "http://commons.wikimedia.org/wiki/Special:FilePath/London%20southbank%20university.jpg",
    "lon": -0.10154,
    "lat": 51.4981,
    "lat_lon": "51.4981,-0.10154",
    "": "",
    "__1": ""
  },
  {
    "university": "http://www.wikidata.org/entity/Q419339",
    "universityLabel": "Akita International University",
    "inception": "2004-01-01T00:00:00Z",
    "located_in_the_administrative_territorial_entity": "http://www.wikidata.org/entity/Q17139",
    "located_in_the_administrative_territorial_entityLabel": "Akita",
    "country": "http://www.wikidata.org/entity/Q17",
    "countryLabel": "Japan",
    "students_count": 820,
    "image": "http://commons.wikimedia.org/wiki/Special:FilePath/Akita%20International%20University%2020190602.jpg",
    "lon": 140.1979056,
    "lat": 39.627375,
    "lat_lon": "39.627375,140.19790556",
    "": "",
    "__1": ""
  },
  {
    "university": "http://www.wikidata.org/entity/Q547867",
    "universityLabel": "National and Kapodistrian University of Athens",
    "inception": "1837-04-24T00:00:00Z",
    "located_in_the_administrative_territorial_entity": "http://www.wikidata.org/entity/Q731909",
    "located_in_the_administrative_territorial_entityLabel": "Dafni-Ymittos Municipality",
    "country": "http://www.wikidata.org/entity/Q41",
    "countryLabel": "Greece",
    "students_count": 70461,
    "image": "http://commons.wikimedia.org/wiki/Special:FilePath/Universit%C3%A4t%20von%20Athen.jpg",
    "lon": 23.64822222,
    "lat": 38.57008333,
    "lat_lon": "38.570083333,23.648222222",
    "": "",
    "__1": ""
  },
  {
    "university": "http://www.wikidata.org/entity/Q15570",
    "universityLabel": "The Chinese University of Hong Kong",
    "inception": "1963-01-01T00:00:00Z",
    "located_in_the_administrative_territorial_entity": "http://www.wikidata.org/entity/Q15019",
    "located_in_the_administrative_territorial_entityLabel": "Sha Tin District",
    "country": "http://www.wikidata.org/entity/Q148",
    "countryLabel": "People's Republic of China",
    "students_count": 19861,
    "image": "http://commons.wikimedia.org/wiki/Special:FilePath/Chinese%20University%20of%20Hong%20Kong%20%E9%A6%99%E6%B8%AF%E4%B8%AD%E6%96%87%E5%A4%A7%E5%AD%B8.JPG",
    "lon": 114.2067917,
    "lat": 22.41972222,
    "lat_lon": "22.419722222,114.206791666",
    "": "",
    "__1": ""
  },
  {
    "university": "http://www.wikidata.org/entity/Q315658",
    "universityLabel": "University of Wrocław",
    "inception": "1702-01-01T00:00:00Z",
    "located_in_the_administrative_territorial_entity": "http://www.wikidata.org/entity/Q1799",
    "located_in_the_administrative_territorial_entityLabel": "Wrocław",
    "country": "http://www.wikidata.org/entity/Q36",
    "countryLabel": "Poland",
    "students_count": 31557,
    "image": "http://commons.wikimedia.org/wiki/Special:FilePath/Wroclaw-%20Uniwersytet%20i%20Kosciol%20Uniwersytecki.jpg",
    "lon": 17.03333333,
    "lat": 51.11361111,
    "lat_lon": "51.113611111,17.033333333",
    "": "",
    "__1": ""
  },
  {
    "university": "http://www.wikidata.org/entity/Q414219",
    "universityLabel": "Academy of Fine Arts Vienna",
    "inception": "1692-01-01T00:00:00Z",
    "located_in_the_administrative_territorial_entity": "http://www.wikidata.org/entity/Q1741",
    "located_in_the_administrative_territorial_entityLabel": "Vienna",
    "country": "http://www.wikidata.org/entity/Q40",
    "countryLabel": "Austria",
    "students_count": 1494,
    "image": "http://commons.wikimedia.org/wiki/Special:FilePath/Akademie%20der%20bildenden%20Kuenste%20DSC%202400w.jpg",
    "lon": 16.365103,
    "lat": 48.201253,
    "lat_lon": "48.201253,16.365103",
    "": "",
    "__1": ""
  },
  {
    "university": "http://www.wikidata.org/entity/Q414219",
    "universityLabel": "Academy of Fine Arts Vienna",
    "inception": "1692-01-01T00:00:00Z",
    "located_in_the_administrative_territorial_entity": "http://www.wikidata.org/entity/Q1741",
    "located_in_the_administrative_territorial_entityLabel": "Vienna",
    "country": "http://www.wikidata.org/entity/Q40",
    "countryLabel": "Austria",
    "students_count": 1613,
    "image": "http://commons.wikimedia.org/wiki/Special:FilePath/Akademie%20der%20bildenden%20Kuenste%20DSC%202400w.jpg",
    "lon": 16.365103,
    "lat": 48.201253,
    "lat_lon": "48.201253,16.365103",
    "": "",
    "__1": ""
  },
  {
    "university": "http://www.wikidata.org/entity/Q319239",
    "universityLabel": "Tel Aviv University",
    "inception": "1956-01-01T00:00:00Z",
    "located_in_the_administrative_territorial_entity": "http://www.wikidata.org/entity/Q33935",
    "located_in_the_administrative_territorial_entityLabel": "Tel Aviv",
    "country": "http://www.wikidata.org/entity/Q801",
    "countryLabel": "Israel",
    "students_count": 27173,
    "image": "http://commons.wikimedia.org/wiki/Special:FilePath/Tel%20Aviv%20University%20from%20Air.jpg",
    "lon": 34.805,
    "lat": 32.1125,
    "lat_lon": "32.1125,34.805",
    "": "",
    "__1": ""
  },
  {
    "university": "http://www.wikidata.org/entity/Q518851",
    "universityLabel": "Sibelius Academy",
    "inception": "1882-01-01T00:00:00Z",
    "located_in_the_administrative_territorial_entity": "http://www.wikidata.org/entity/Q1757",
    "located_in_the_administrative_territorial_entityLabel": "Helsinki",
    "country": "http://www.wikidata.org/entity/Q33",
    "countryLabel": "Finland",
    "students_count": 1700,
    "image": "http://commons.wikimedia.org/wiki/Special:FilePath/Sibelius-akatemia.jpg",
    "lon": 24.9325,
    "lat": 60.17166667,
    "lat_lon": "60.171666666,24.9325",
    "": "",
    "__1": ""
  },
  {
    "university": "http://www.wikidata.org/entity/Q41506",
    "universityLabel": "Stanford University",
    "inception": "1885-01-01T00:00:00Z",
    "located_in_the_administrative_territorial_entity": "http://www.wikidata.org/entity/Q173813",
    "located_in_the_administrative_territorial_entityLabel": "Stanford",
    "country": "http://www.wikidata.org/entity/Q30",
    "countryLabel": "United States of America",
    "students_count": 17246,
    "image": "http://commons.wikimedia.org/wiki/Special:FilePath/Stanford%20Oval%20May%202011%20panorama.jpg",
    "lon": -122.1688576,
    "lat": 37.4282293,
    "lat_lon": "37.4282293,-122.1688576",
    "": "",
    "__1": ""
  },
  {
    "university": "http://www.wikidata.org/entity/Q429863",
    "universityLabel": "Florida Atlantic University",
    "inception": "1961-01-01T00:00:00Z",
    "located_in_the_administrative_territorial_entity": "http://www.wikidata.org/entity/Q29422",
    "located_in_the_administrative_territorial_entityLabel": "Boca Raton",
    "country": "http://www.wikidata.org/entity/Q30",
    "countryLabel": "United States of America",
    "students_count": 26857,
    "image": "http://commons.wikimedia.org/wiki/Special:FilePath/FAU%20Sign%20NW%2020th%20St.jpg",
    "lon": -80.1017,
    "lat": 26.3712,
    "lat_lon": "26.3712,-80.1017",
    "": "",
    "__1": ""
  },
  {
    "university": "http://www.wikidata.org/entity/Q547867",
    "universityLabel": "National and Kapodistrian University of Athens",
    "inception": "1837-04-24T00:00:00Z",
    "located_in_the_administrative_territorial_entity": "http://www.wikidata.org/entity/Q731909",
    "located_in_the_administrative_territorial_entityLabel": "Dafni-Ymittos Municipality",
    "country": "http://www.wikidata.org/entity/Q41",
    "countryLabel": "Greece",
    "students_count": 70461,
    "image": "http://commons.wikimedia.org/wiki/Special:FilePath/Universit%C3%A4t%20von%20Athen.jpg",
    "lon": 23.7764931,
    "lat": 37.968196,
    "lat_lon": "37.968196,23.7764931",
    "": "",
    "__1": ""
  },
  {
    "university": "http://www.wikidata.org/entity/Q498451",
    "universityLabel": "Northwestern Polytechnic University",
    "inception": "1984-01-01T00:00:00Z",
    "located_in_the_administrative_territorial_entity": "http://www.wikidata.org/entity/Q49220",
    "located_in_the_administrative_territorial_entityLabel": "Fremont",
    "country": "http://www.wikidata.org/entity/Q30",
    "countryLabel": "United States of America",
    "students_count": 33,
    "image": "http://commons.wikimedia.org/wiki/Special:FilePath/NPU%20NorthBuilding.jpg",
    "lon": -121.926,
    "lat": 37.4778,
    "lat_lon": "37.4778,-121.926",
    "": "",
    "__1": ""
  },
  {
    "university": "http://www.wikidata.org/entity/Q263064",
    "universityLabel": "University of California, Santa Barbara",
    "inception": "1909-01-01T00:00:00Z",
    "located_in_the_administrative_territorial_entity": "http://www.wikidata.org/entity/Q159288",
    "located_in_the_administrative_territorial_entityLabel": "Santa Barbara",
    "country": "http://www.wikidata.org/entity/Q30",
    "countryLabel": "United States of America",
    "students_count": 26314,
    "image": "http://commons.wikimedia.org/wiki/Special:FilePath/UCSB%20University%20Center%20and%20Storke%20Tower.jpg",
    "lon": -119.8463925,
    "lat": 34.4163232,
    "lat_lon": "34.4163232,-119.8463925",
    "": "",
    "__1": ""
  },
  {
    "university": "http://www.wikidata.org/entity/Q414219",
    "universityLabel": "Academy of Fine Arts Vienna",
    "inception": "1692-01-01T00:00:00Z",
    "located_in_the_administrative_territorial_entity": "http://www.wikidata.org/entity/Q267329",
    "located_in_the_administrative_territorial_entityLabel": "Innere Stadt",
    "country": "http://www.wikidata.org/entity/Q40",
    "countryLabel": "Austria",
    "students_count": 1494,
    "image": "http://commons.wikimedia.org/wiki/Special:FilePath/Akademie%20der%20bildenden%20Kuenste%20DSC%202400w.jpg",
    "lon": 16.365103,
    "lat": 48.201253,
    "lat_lon": "48.201253,16.365103",
    "": "",
    "__1": ""
  },
  {
    "university": "http://www.wikidata.org/entity/Q414219",
    "universityLabel": "Academy of Fine Arts Vienna",
    "inception": "1692-01-01T00:00:00Z",
    "located_in_the_administrative_territorial_entity": "http://www.wikidata.org/entity/Q267329",
    "located_in_the_administrative_territorial_entityLabel": "Innere Stadt",
    "country": "http://www.wikidata.org/entity/Q40",
    "countryLabel": "Austria",
    "students_count": 1613,
    "image": "http://commons.wikimedia.org/wiki/Special:FilePath/Akademie%20der%20bildenden%20Kuenste%20DSC%202400w.jpg",
    "lon": 16.365103,
    "lat": 48.201253,
    "lat_lon": "48.201253,16.365103",
    "": "",
    "__1": ""
  },
  {
    "university": "http://www.wikidata.org/entity/Q7842",
    "universityLabel": "University of Tokyo",
    "inception": "1877-04-12T00:00:00Z",
    "located_in_the_administrative_territorial_entity": "http://www.wikidata.org/entity/Q3108376",
    "located_in_the_administrative_territorial_entityLabel": "Hongō",
    "country": "http://www.wikidata.org/entity/Q17",
    "countryLabel": "Japan",
    "students_count": 28133,
    "image": "http://commons.wikimedia.org/wiki/Special:FilePath/Yasuda%20Auditorium%20-%20Tokyo%20University%203.jpg",
    "lon": 139.76232,
    "lat": 35.71339,
    "lat_lon": "35.71339,139.76232",
    "": "",
    "__1": ""
  },
  {
    "university": "http://www.wikidata.org/entity/Q75639",
    "universityLabel": "National University of East Timor",
    "inception": "1965-05-20T00:00:00Z",
    "located_in_the_administrative_territorial_entity": "http://www.wikidata.org/entity/Q860901",
    "located_in_the_administrative_territorial_entityLabel": "Dili municipality",
    "country": "http://www.wikidata.org/entity/Q574",
    "countryLabel": "East Timor",
    "students_count": 10454,
    "image": "http://commons.wikimedia.org/wiki/Special:FilePath/DiliUniversidadeNacional.jpg",
    "lon": 125.579093,
    "lat": -8.555503,
    "lat_lon": "-8.555503,125.579093",
    "": "",
    "__1": ""
  },
  {
    "university": "http://www.wikidata.org/entity/Q39920",
    "universityLabel": "Kim Il-sung University",
    "inception": "1946-01-01T00:00:00Z",
    "located_in_the_administrative_territorial_entity": "http://www.wikidata.org/entity/Q18808",
    "located_in_the_administrative_territorial_entityLabel": "Pyongyang",
    "country": "http://www.wikidata.org/entity/Q423",
    "countryLabel": "North Korea",
    "students_count": 10000,
    "image": "http://commons.wikimedia.org/wiki/Special:FilePath/Kim%20Il-sung%20University.jpg",
    "lon": 125.7683333,
    "lat": 39.05805556,
    "lat_lon": "39.058055555,125.768333333",
    "": "",
    "__1": ""
  },
  {
    "university": "http://www.wikidata.org/entity/Q93435",
    "universityLabel": "Bukovinian State Medical University",
    "inception": "1944-01-01T00:00:00Z",
    "located_in_the_administrative_territorial_entity": "http://www.wikidata.org/entity/Q157725",
    "located_in_the_administrative_territorial_entityLabel": "Chernivtsi",
    "country": "http://www.wikidata.org/entity/Q212",
    "countryLabel": "Ukraine",
    "students_count": 5000,
    "image": "http://commons.wikimedia.org/wiki/Special:FilePath/Chern-Panorama2.jpg",
    "lon": 25.9322,
    "lat": 48.2914,
    "lat_lon": "48.2914,25.9322",
    "": "",
    "__1": ""
  },
  {
    "university": "http://www.wikidata.org/entity/Q501841",
    "universityLabel": "University of Turku",
    "inception": "1920-01-01T00:00:00Z",
    "located_in_the_administrative_territorial_entity": "http://www.wikidata.org/entity/Q38511",
    "located_in_the_administrative_territorial_entityLabel": "Turku",
    "country": "http://www.wikidata.org/entity/Q33",
    "countryLabel": "Finland",
    "students_count": 20800,
    "image": "http://commons.wikimedia.org/wiki/Special:FilePath/Turun%20yliopisto.jpg",
    "lon": 22.28472222,
    "lat": 60.45416667,
    "lat_lon": "60.454166666,22.284722222",
    "": "",
    "__1": ""
  },
  {
    "university": "http://www.wikidata.org/entity/Q547867",
    "universityLabel": "National and Kapodistrian University of Athens",
    "inception": "1837-04-24T00:00:00Z",
    "located_in_the_administrative_territorial_entity": "http://www.wikidata.org/entity/Q643945",
    "located_in_the_administrative_territorial_entityLabel": "Dirfys-Messapia Municipality",
    "country": "http://www.wikidata.org/entity/Q41",
    "countryLabel": "Greece",
    "students_count": 70461,
    "image": "http://commons.wikimedia.org/wiki/Special:FilePath/Universit%C3%A4t%20von%20Athen.jpg",
    "lon": 23.73395165,
    "lat": 37.98085747,
    "lat_lon": "37.980857465,23.733951653",
    "": "",
    "__1": ""
  },
  {
    "university": "http://www.wikidata.org/entity/Q314536",
    "universityLabel": "Norwegian University of Science and Technology",
    "inception": "1996-01-01T00:00:00Z",
    "located_in_the_administrative_territorial_entity": "http://www.wikidata.org/entity/Q1324436",
    "located_in_the_administrative_territorial_entityLabel": "Trondheim municipality",
    "country": "http://www.wikidata.org/entity/Q20",
    "countryLabel": "Norway",
    "students_count": 42031,
    "image": "http://commons.wikimedia.org/wiki/Special:FilePath/NTNU%20Trondheim%20Mainbuilding.jpg",
    "lon": 10.4025,
    "lat": 63.41944444,
    "lat_lon": "63.419444444,10.4025",
    "": "",
    "__1": ""
  },
  {
    "university": "http://www.wikidata.org/entity/Q462588",
    "universityLabel": "Kansai Gaidai University",
    "inception": "1966-04-01T00:00:00Z",
    "located_in_the_administrative_territorial_entity": "http://www.wikidata.org/entity/Q270912",
    "located_in_the_administrative_territorial_entityLabel": "Hirakata",
    "country": "http://www.wikidata.org/entity/Q17",
    "countryLabel": "Japan",
    "students_count": 10116,
    "image": "http://commons.wikimedia.org/wiki/Special:FilePath/KansaiGaidaiOsaka.jpg",
    "lon": 135.66436,
    "lat": 34.82325,
    "lat_lon": "34.82325,135.66436",
    "": "",
    "__1": ""
  },
  {
    "university": "http://www.wikidata.org/entity/Q74343",
    "universityLabel": "Duquesne University",
    "inception": "1878-01-01T00:00:00Z",
    "located_in_the_administrative_territorial_entity": "http://www.wikidata.org/entity/Q1342",
    "located_in_the_administrative_territorial_entityLabel": "Pittsburgh",
    "country": "http://www.wikidata.org/entity/Q30",
    "countryLabel": "United States of America",
    "students_count": 9344,
    "image": "http://commons.wikimedia.org/wiki/Special:FilePath/DuquesneChapel.JPG",
    "lon": -79.99305556,
    "lat": 40.43611111,
    "lat_lon": "40.436111111,-79.993055555",
    "": "",
    "__1": ""
  },
  {
    "university": "http://www.wikidata.org/entity/Q314536",
    "universityLabel": "Norwegian University of Science and Technology",
    "inception": "1996-01-01T00:00:00Z",
    "located_in_the_administrative_territorial_entity": "http://www.wikidata.org/entity/Q108031",
    "located_in_the_administrative_territorial_entityLabel": "Gjøvik",
    "country": "http://www.wikidata.org/entity/Q20",
    "countryLabel": "Norway",
    "students_count": 42031,
    "image": "http://commons.wikimedia.org/wiki/Special:FilePath/NTNU%20Trondheim%20Mainbuilding.jpg",
    "lon": 10.4025,
    "lat": 63.41944444,
    "lat_lon": "63.419444444,10.4025",
    "": "",
    "__1": ""
  },
  {
    "university": "http://www.wikidata.org/entity/Q277664",
    "universityLabel": "Tampere University of Technology",
    "inception": "1972-01-01T00:00:00Z",
    "located_in_the_administrative_territorial_entity": "http://www.wikidata.org/entity/Q40840",
    "located_in_the_administrative_territorial_entityLabel": "Tampere",
    "country": "http://www.wikidata.org/entity/Q33",
    "countryLabel": "Finland",
    "students_count": 7952,
    "image": "http://commons.wikimedia.org/wiki/Special:FilePath/Tampere%20University%20of%20Technology%20Tietotalo%20East.jpg",
    "lon": 23.86,
    "lat": 61.44944444,
    "lat_lon": "61.449444444,23.86",
    "": "",
    "__1": ""
  },
  {
    "university": "http://www.wikidata.org/entity/Q493141",
    "universityLabel": "University of Botswana",
    "inception": "1982-01-01T00:00:00Z",
    "located_in_the_administrative_territorial_entity": "http://www.wikidata.org/entity/Q3919",
    "located_in_the_administrative_territorial_entityLabel": "Gaborone",
    "country": "http://www.wikidata.org/entity/Q963",
    "countryLabel": "Botswana",
    "students_count": 18176,
    "image": "http://commons.wikimedia.org/wiki/Special:FilePath/University%20of%20Botswana%20Earth%20Science.JPG",
    "lon": 25.9333,
    "lat": -24.6667,
    "lat_lon": "-24.6667,25.9333",
    "": "",
    "__1": ""
  },
  {
    "university": "http://www.wikidata.org/entity/Q65379",
    "universityLabel": "Virginia Tech",
    "inception": "1872-01-01T00:00:00Z",
    "located_in_the_administrative_territorial_entity": "http://www.wikidata.org/entity/Q285816",
    "located_in_the_administrative_territorial_entityLabel": "Blacksburg",
    "country": "http://www.wikidata.org/entity/Q30",
    "countryLabel": "United States of America",
    "students_count": 28470,
    "image": "http://commons.wikimedia.org/wiki/Special:FilePath/VT%20Burruss%20Hall.jpg",
    "lon": -80.425,
    "lat": 37.225,
    "lat_lon": "37.225,-80.425",
    "": "",
    "__1": ""
  },
  {
    "university": "http://www.wikidata.org/entity/Q547867",
    "universityLabel": "National and Kapodistrian University of Athens",
    "inception": "1837-04-24T00:00:00Z",
    "located_in_the_administrative_territorial_entity": "http://www.wikidata.org/entity/Q1224979",
    "located_in_the_administrative_territorial_entityLabel": "Athens Municipality",
    "country": "http://www.wikidata.org/entity/Q41",
    "countryLabel": "Greece",
    "students_count": 70461,
    "image": "http://commons.wikimedia.org/wiki/Special:FilePath/Universit%C3%A4t%20von%20Athen.jpg",
    "lon": 23.73877778,
    "lat": 37.95111111,
    "lat_lon": "37.951111111,23.738777777",
    "": "",
    "__1": ""
  },
  {
    "university": "http://www.wikidata.org/entity/Q49205",
    "universityLabel": "Wellesley College",
    "inception": "1870-01-01T00:00:00Z",
    "located_in_the_administrative_territorial_entity": "http://www.wikidata.org/entity/Q533317",
    "located_in_the_administrative_territorial_entityLabel": "Wellesley",
    "country": "http://www.wikidata.org/entity/Q30",
    "countryLabel": "United States of America",
    "students_count": 2392,
    "image": "http://commons.wikimedia.org/wiki/Special:FilePath/Green%20Hall%2C%20Wellesley%20College%2C%20Wellesley%20MA.jpg",
    "lon": -71.30667,
    "lat": 42.29528,
    "lat_lon": "42.29528,-71.30667",
    "": "",
    "__1": ""
  },
  {
    "university": "http://www.wikidata.org/entity/Q49205",
    "universityLabel": "Wellesley College",
    "inception": "1870-01-01T00:00:00Z",
    "located_in_the_administrative_territorial_entity": "http://www.wikidata.org/entity/Q533317",
    "located_in_the_administrative_territorial_entityLabel": "Wellesley",
    "country": "http://www.wikidata.org/entity/Q30",
    "countryLabel": "United States of America",
    "students_count": 2474,
    "image": "http://commons.wikimedia.org/wiki/Special:FilePath/Green%20Hall%2C%20Wellesley%20College%2C%20Wellesley%20MA.jpg",
    "lon": -71.30667,
    "lat": 42.29528,
    "lat_lon": "42.29528,-71.30667",
    "": "",
    "__1": ""
  },
  {
    "university": "http://www.wikidata.org/entity/Q521612",
    "universityLabel": "Folkwang University of the Arts",
    "inception": "1927-01-01T00:00:00Z",
    "located_in_the_administrative_territorial_entity": "http://www.wikidata.org/entity/Q1295",
    "located_in_the_administrative_territorial_entityLabel": "Dortmund",
    "country": "http://www.wikidata.org/entity/Q183",
    "countryLabel": "Germany",
    "students_count": 1506,
    "image": "http://commons.wikimedia.org/wiki/Special:FilePath/Essen%20Kloster%20Werden%20Innenhof%202%202005.jpg",
    "lon": 7.00444,
    "lat": 51.3875,
    "lat_lon": "51.3875,7.00444",
    "": "",
    "__1": ""
  },
  {
    "university": "http://www.wikidata.org/entity/Q307065",
    "universityLabel": "Abkhazian State University",
    "inception": "1932-01-01T00:00:00Z",
    "located_in_the_administrative_territorial_entity": "http://www.wikidata.org/entity/Q40811",
    "located_in_the_administrative_territorial_entityLabel": "Sukhumi",
    "country": "http://www.wikidata.org/entity/Q230",
    "countryLabel": "Georgia",
    "students_count": 3000,
    "image": "http://commons.wikimedia.org/wiki/Special:FilePath/Sukhumi%20State%20University%20%282013%29.jpg",
    "lon": 41.06638889,
    "lat": 42.97611111,
    "lat_lon": "42.976111111,41.066388888",
    "": "",
    "__1": ""
  },
  {
    "university": "http://www.wikidata.org/entity/Q31458",
    "universityLabel": "Far East State Humanitarian University",
    "inception": "1934-01-01T00:00:00Z",
    "located_in_the_administrative_territorial_entity": "http://www.wikidata.org/entity/Q4454",
    "located_in_the_administrative_territorial_entityLabel": "Khabarovsk",
    "country": "http://www.wikidata.org/entity/Q159",
    "countryLabel": "Russia",
    "students_count": 4700,
    "image": "http://commons.wikimedia.org/wiki/Special:FilePath/%D0%A5%D0%93%D0%9F%D0%98.jpg",
    "lon": 135,
    "lat": 48.8,
    "lat_lon": "48.8,135",
    "": "",
    "__1": ""
  },
  {
    "university": "http://www.wikidata.org/entity/Q475084",
    "universityLabel": "Kostroma state university",
    "inception": "1918-01-01T00:00:00Z",
    "located_in_the_administrative_territorial_entity": "http://www.wikidata.org/entity/Q2592",
    "located_in_the_administrative_territorial_entityLabel": "Kostroma",
    "country": "http://www.wikidata.org/entity/Q159",
    "countryLabel": "Russia",
    "students_count": 5381,
    "image": "http://commons.wikimedia.org/wiki/Special:FilePath/State-university-02-kostroma.jpg",
    "lon": 40.91766667,
    "lat": 57.76733333,
    "lat_lon": "57.76733333,40.91766667",
    "": "",
    "__1": ""
  },
  {
    "university": "http://www.wikidata.org/entity/Q426045",
    "universityLabel": "University of Malta",
    "inception": "1769-01-01T00:00:00Z",
    "located_in_the_administrative_territorial_entity": "http://www.wikidata.org/entity/Q585187",
    "located_in_the_administrative_territorial_entityLabel": "Msida",
    "country": "http://www.wikidata.org/entity/Q233",
    "countryLabel": "Malta",
    "students_count": 11500,
    "image": "http://commons.wikimedia.org/wiki/Special:FilePath/Uni-20malta.jpg",
    "lon": 14.48333333,
    "lat": 35.9025,
    "lat_lon": "35.9025,14.48333333",
    "": "",
    "__1": ""
  },
  {
    "university": "http://www.wikidata.org/entity/Q414219",
    "universityLabel": "Academy of Fine Arts Vienna",
    "inception": "1692-01-01T00:00:00Z",
    "located_in_the_administrative_territorial_entity": "http://www.wikidata.org/entity/Q1741",
    "located_in_the_administrative_territorial_entityLabel": "Vienna",
    "country": "http://www.wikidata.org/entity/Q40",
    "countryLabel": "Austria",
    "students_count": 1494,
    "image": "http://commons.wikimedia.org/wiki/Special:FilePath/Akademie%20der%20bildenden%20Kuenste%20DSC%202400w.jpg",
    "lon": 16.36527778,
    "lat": 48.20138889,
    "lat_lon": "48.201388888,16.365277777",
    "": "",
    "__1": ""
  },
  {
    "university": "http://www.wikidata.org/entity/Q414219",
    "universityLabel": "Academy of Fine Arts Vienna",
    "inception": "1692-01-01T00:00:00Z",
    "located_in_the_administrative_territorial_entity": "http://www.wikidata.org/entity/Q1741",
    "located_in_the_administrative_territorial_entityLabel": "Vienna",
    "country": "http://www.wikidata.org/entity/Q40",
    "countryLabel": "Austria",
    "students_count": 1613,
    "image": "http://commons.wikimedia.org/wiki/Special:FilePath/Akademie%20der%20bildenden%20Kuenste%20DSC%202400w.jpg",
    "lon": 16.36527778,
    "lat": 48.20138889,
    "lat_lon": "48.201388888,16.365277777",
    "": "",
    "__1": ""
  },
  {
    "university": "http://www.wikidata.org/entity/Q371522",
    "universityLabel": "University of Gothenburg",
    "inception": "1954-07-01T00:00:00Z",
    "located_in_the_administrative_territorial_entity": "http://www.wikidata.org/entity/Q52502",
    "located_in_the_administrative_territorial_entityLabel": "Gothenburg Municipality",
    "country": "http://www.wikidata.org/entity/Q34",
    "countryLabel": "Sweden",
    "students_count": 37000,
    "image": "http://commons.wikimedia.org/wiki/Special:FilePath/G%C3%B6teborgs%20universitet%20-%20huvudbyggnaden.jpg",
    "lon": 11.97166667,
    "lat": 57.69833333,
    "lat_lon": "57.698333333,11.971666666",
    "": "",
    "__1": ""
  },
  {
    "university": "http://www.wikidata.org/entity/Q371522",
    "universityLabel": "University of Gothenburg",
    "inception": "1954-07-01T00:00:00Z",
    "located_in_the_administrative_territorial_entity": "http://www.wikidata.org/entity/Q52502",
    "located_in_the_administrative_territorial_entityLabel": "Gothenburg Municipality",
    "country": "http://www.wikidata.org/entity/Q34",
    "countryLabel": "Sweden",
    "students_count": 36003,
    "image": "http://commons.wikimedia.org/wiki/Special:FilePath/G%C3%B6teborgs%20universitet%20-%20huvudbyggnaden.jpg",
    "lon": 11.97166667,
    "lat": 57.69833333,
    "lat_lon": "57.698333333,11.971666666",
    "": "",
    "__1": ""
  },
  {
    "university": "http://www.wikidata.org/entity/Q292489",
    "universityLabel": "Al-Azhar University – Gaza",
    "inception": "1991-01-01T00:00:00Z",
    "located_in_the_administrative_territorial_entity": "http://www.wikidata.org/entity/Q47492",
    "located_in_the_administrative_territorial_entityLabel": "Gaza City",
    "country": "http://www.wikidata.org/entity/Q219060",
    "countryLabel": "State of Palestine",
    "students_count": 9872,
    "image": "http://commons.wikimedia.org/wiki/Special:FilePath/%D8%AC%D8%A7%D9%85%D8%B9%D8%A9%20%D8%A7%D9%84%D8%A7%D8%B2%D9%87%D8%B1%20%D9%85%D8%A8%D9%86%D9%8A%20%D8%A7%D9%84%D9%83%D9%84%D9%8A%D8%A7%D8%AA%20%D8%A7%D9%84%D8%A7%D8%AF%D8%A8%D9%8A%D8%A9.jpg",
    "lon": 34.436667,
    "lat": 31.515,
    "lat_lon": "31.515,34.436667",
    "": "",
    "__1": ""
  },
  {
    "university": "http://www.wikidata.org/entity/Q280824",
    "universityLabel": "Eindhoven University of Technology",
    "inception": "1956-01-01T00:00:00Z",
    "located_in_the_administrative_territorial_entity": "http://www.wikidata.org/entity/Q9832",
    "located_in_the_administrative_territorial_entityLabel": "Eindhoven",
    "country": "http://www.wikidata.org/entity/Q55",
    "countryLabel": "Netherlands",
    "students_count": 11000,
    "image": "http://commons.wikimedia.org/wiki/Special:FilePath/TU%20Eindhoven.jpg",
    "lon": 5.489722222,
    "lat": 51.44805556,
    "lat_lon": "51.448055555,5.489722222",
    "": "",
    "__1": ""
  },
  {
    "university": "http://www.wikidata.org/entity/Q15144",
    "universityLabel": "University of Massachusetts Boston",
    "inception": "1964-01-01T00:00:00Z",
    "located_in_the_administrative_territorial_entity": "http://www.wikidata.org/entity/Q100",
    "located_in_the_administrative_territorial_entityLabel": "Boston",
    "country": "http://www.wikidata.org/entity/Q30",
    "countryLabel": "United States of America",
    "students_count": 16259,
    "image": "http://commons.wikimedia.org/wiki/Special:FilePath/UMass%20Boston%20campus.jpg",
    "lon": -71.038445,
    "lat": 42.313432,
    "lat_lon": "42.313432,-71.038445",
    "": "",
    "__1": ""
  },
  {
    "university": "http://www.wikidata.org/entity/Q336264",
    "universityLabel": "Kyoto University",
    "inception": "1897-06-18T00:00:00Z",
    "located_in_the_administrative_territorial_entity": "http://www.wikidata.org/entity/Q1321832",
    "located_in_the_administrative_territorial_entityLabel": "Sakyō-ku",
    "country": "http://www.wikidata.org/entity/Q17",
    "countryLabel": "Japan",
    "students_count": 22455,
    "image": "http://commons.wikimedia.org/wiki/Special:FilePath/Kyoto%20University.jpg",
    "lon": 135.780842,
    "lat": 35.026212,
    "lat_lon": "35.026212,135.780842",
    "": "",
    "__1": ""
  },
  {
    "university": "http://www.wikidata.org/entity/Q366071",
    "universityLabel": "University of Zielona Góra",
    "inception": "2001-09-01T00:00:00Z",
    "located_in_the_administrative_territorial_entity": "http://www.wikidata.org/entity/Q104720",
    "located_in_the_administrative_territorial_entityLabel": "Zielona Góra",
    "country": "http://www.wikidata.org/entity/Q36",
    "countryLabel": "Poland",
    "students_count": 18000,
    "image": "http://commons.wikimedia.org/wiki/Special:FilePath/Zielona%20G%C3%B3ra%2C%20ul.%20Licealna%209%20%28rektorat%20UZ%29.jpg",
    "lon": 15.50694444,
    "lat": 51.93638889,
    "lat_lon": "51.93638889,15.50694444",
    "": "",
    "__1": ""
  },
  {
    "university": "http://www.wikidata.org/entity/Q49041",
    "universityLabel": "Allen University",
    "inception": "1870-01-01T00:00:00Z",
    "located_in_the_administrative_territorial_entity": "http://www.wikidata.org/entity/Q1456",
    "located_in_the_administrative_territorial_entityLabel": "South Carolina",
    "country": "http://www.wikidata.org/entity/Q30",
    "countryLabel": "United States of America",
    "students_count": 705,
    "image": "http://commons.wikimedia.org/wiki/Special:FilePath/Chappelle%20Administration%20Building%2C%20Allen%20University%20%28Columbia%29.jpg",
    "lon": -81.020556,
    "lat": 34.010556,
    "lat_lon": "34.010556,-81.020556",
    "": "",
    "__1": ""
  },
  {
    "university": "http://www.wikidata.org/entity/Q13164",
    "universityLabel": "Moscow State University",
    "inception": "1755-01-01T00:00:00Z",
    "located_in_the_administrative_territorial_entity": "http://www.wikidata.org/entity/Q2359096",
    "located_in_the_administrative_territorial_entityLabel": "Ramenki District",
    "country": "http://www.wikidata.org/entity/Q159",
    "countryLabel": "Russia",
    "students_count": 38150,
    "image": "http://commons.wikimedia.org/wiki/Special:FilePath/%D0%9C%D0%93%D0%A3%2C%20%D0%B2%D0%B8%D0%B4%20%D1%81%20%D0%B2%D0%BE%D0%B7%D0%B4%D1%83%D1%85%D0%B0.jpg",
    "lon": 37.53055556,
    "lat": 55.7025,
    "lat_lon": "55.7025,37.530555555",
    "": "",
    "__1": ""
  },
  {
    "university": "http://www.wikidata.org/entity/Q49110",
    "universityLabel": "Boston University",
    "inception": "1869-01-01T00:00:00Z",
    "located_in_the_administrative_territorial_entity": "http://www.wikidata.org/entity/Q771",
    "located_in_the_administrative_territorial_entityLabel": "Massachusetts",
    "country": "http://www.wikidata.org/entity/Q30",
    "countryLabel": "United States of America",
    "students_count": 30009,
    "image": "http://commons.wikimedia.org/wiki/Special:FilePath/BU%20College%20of%20Communication.jpg",
    "lon": -71.10027778,
    "lat": 42.34888889,
    "lat_lon": "42.348888888,-71.100277777",
    "": "",
    "__1": ""
  },
  {
    "university": "http://www.wikidata.org/entity/Q414219",
    "universityLabel": "Academy of Fine Arts Vienna",
    "inception": "1692-01-01T00:00:00Z",
    "located_in_the_administrative_territorial_entity": "http://www.wikidata.org/entity/Q267329",
    "located_in_the_administrative_territorial_entityLabel": "Innere Stadt",
    "country": "http://www.wikidata.org/entity/Q40",
    "countryLabel": "Austria",
    "students_count": 1494,
    "image": "http://commons.wikimedia.org/wiki/Special:FilePath/Akademie%20der%20bildenden%20Kuenste%20DSC%202400w.jpg",
    "lon": 16.36527778,
    "lat": 48.20138889,
    "lat_lon": "48.201388888,16.365277777",
    "": "",
    "__1": ""
  },
  {
    "university": "http://www.wikidata.org/entity/Q414219",
    "universityLabel": "Academy of Fine Arts Vienna",
    "inception": "1692-01-01T00:00:00Z",
    "located_in_the_administrative_territorial_entity": "http://www.wikidata.org/entity/Q267329",
    "located_in_the_administrative_territorial_entityLabel": "Innere Stadt",
    "country": "http://www.wikidata.org/entity/Q40",
    "countryLabel": "Austria",
    "students_count": 1613,
    "image": "http://commons.wikimedia.org/wiki/Special:FilePath/Akademie%20der%20bildenden%20Kuenste%20DSC%202400w.jpg",
    "lon": 16.36527778,
    "lat": 48.20138889,
    "lat_lon": "48.201388888,16.365277777",
    "": "",
    "__1": ""
  },
  {
    "university": "http://www.wikidata.org/entity/Q49120",
    "universityLabel": "Tufts University",
    "inception": "1852-01-01T00:00:00Z",
    "located_in_the_administrative_territorial_entity": "http://www.wikidata.org/entity/Q771",
    "located_in_the_administrative_territorial_entityLabel": "Massachusetts",
    "country": "http://www.wikidata.org/entity/Q30",
    "countryLabel": "United States of America",
    "students_count": 9517,
    "image": "http://commons.wikimedia.org/wiki/Special:FilePath/Tufts%20Bendetson%20hall.JPG",
    "lon": -71.11982,
    "lat": 42.406949,
    "lat_lon": "42.406949,-71.11982",
    "": "",
    "__1": ""
  },
  {
    "university": "http://www.wikidata.org/entity/Q49108",
    "universityLabel": "Massachusetts Institute of Technology",
    "inception": "1861-04-10T00:00:00Z",
    "located_in_the_administrative_territorial_entity": "http://www.wikidata.org/entity/Q49111",
    "located_in_the_administrative_territorial_entityLabel": "Cambridge",
    "country": "http://www.wikidata.org/entity/Q30",
    "countryLabel": "United States of America",
    "students_count": 11574,
    "image": "http://commons.wikimedia.org/wiki/Special:FilePath/MIT%20Main%20Apr09.JPG",
    "lon": -71.09194444,
    "lat": 42.35972222,
    "lat_lon": "42.359722222,-71.091944444",
    "": "",
    "__1": ""
  },
  {
    "university": "http://www.wikidata.org/entity/Q348402",
    "universityLabel": "Adam Mickiewicz University in Poznań",
    "inception": "1919-05-07T00:00:00Z",
    "located_in_the_administrative_territorial_entity": "http://www.wikidata.org/entity/Q268",
    "located_in_the_administrative_territorial_entityLabel": "Poznań",
    "country": "http://www.wikidata.org/entity/Q36",
    "countryLabel": "Poland",
    "students_count": 37013,
    "image": "http://commons.wikimedia.org/wiki/Special:FilePath/Poznan%2010-2013%20img06%20University.jpg",
    "lon": 16.9155,
    "lat": 52.4047,
    "lat_lon": "52.4047,16.9155",
    "": "",
    "__1": ""
  },
  {
    "university": "http://www.wikidata.org/entity/Q314536",
    "universityLabel": "Norwegian University of Science and Technology",
    "inception": "1996-01-01T00:00:00Z",
    "located_in_the_administrative_territorial_entity": "http://www.wikidata.org/entity/Q62266",
    "located_in_the_administrative_territorial_entityLabel": "Ålesund",
    "country": "http://www.wikidata.org/entity/Q20",
    "countryLabel": "Norway",
    "students_count": 42031,
    "image": "http://commons.wikimedia.org/wiki/Special:FilePath/NTNU%20Trondheim%20Mainbuilding.jpg",
    "lon": 10.4025,
    "lat": 63.41944444,
    "lat_lon": "63.419444444,10.4025",
    "": "",
    "__1": ""
  },
  {
    "university": "http://www.wikidata.org/entity/Q49167",
    "universityLabel": "Wesleyan University",
    "inception": "1831-01-01T00:00:00Z",
    "located_in_the_administrative_territorial_entity": "http://www.wikidata.org/entity/Q49192",
    "located_in_the_administrative_territorial_entityLabel": "Middletown",
    "country": "http://www.wikidata.org/entity/Q30",
    "countryLabel": "United States of America",
    "students_count": 2922,
    "image": "http://commons.wikimedia.org/wiki/Special:FilePath/College%20row%20at%20wesleyan.jpg",
    "lon": -72.655844,
    "lat": 41.55562,
    "lat_lon": "41.55562,-72.655844",
    "": "",
    "__1": ""
  },
  {
    "university": "http://www.wikidata.org/entity/Q538452",
    "universityLabel": "Babeș-Bolyai University",
    "inception": "1776-01-01T00:00:00Z",
    "located_in_the_administrative_territorial_entity": "http://www.wikidata.org/entity/Q100188",
    "located_in_the_administrative_territorial_entityLabel": "Cluj-Napoca",
    "country": "http://www.wikidata.org/entity/Q218",
    "countryLabel": "Romania",
    "students_count": 41136,
    "image": "http://commons.wikimedia.org/wiki/Special:FilePath/Cluj-Napoca%20University%20of%20Babes-Bolyai.JPG",
    "lon": 23.59111111,
    "lat": 46.76777778,
    "lat_lon": "46.767777777,23.591111111",
    "": "",
    "__1": ""
  },
  {
    "university": "http://www.wikidata.org/entity/Q49089",
    "universityLabel": "University of Maryland Eastern Shore",
    "inception": "1886-01-01T00:00:00Z",
    "located_in_the_administrative_territorial_entity": "http://www.wikidata.org/entity/Q754512",
    "located_in_the_administrative_territorial_entityLabel": "Princess Anne",
    "country": "http://www.wikidata.org/entity/Q30",
    "countryLabel": "United States of America",
    "students_count": 2384,
    "image": "http://commons.wikimedia.org/wiki/Special:FilePath/SSC%20Rotunda%20at%20UMES%20campus.jpg",
    "lon": -75.6860717,
    "lat": 38.2074588,
    "lat_lon": "38.2074588,-75.6860717",
    "": "",
    "__1": ""
  },
  {
    "university": "http://www.wikidata.org/entity/Q391945",
    "universityLabel": "ŠKODA AUTO University",
    "inception": "2000-01-01T00:00:00Z",
    "located_in_the_administrative_territorial_entity": "http://www.wikidata.org/entity/Q191805",
    "located_in_the_administrative_territorial_entityLabel": "Mladá Boleslav",
    "country": "http://www.wikidata.org/entity/Q213",
    "countryLabel": "Czech Republic",
    "students_count": 1134,
    "image": "http://commons.wikimedia.org/wiki/Special:FilePath/Vzdelavaci%20centrum%20Na%20Karmeli.jpg",
    "lon": 14.902481,
    "lat": 50.415608,
    "lat_lon": "50.415608,14.902481",
    "": "",
    "__1": ""
  },
  {
    "university": "http://www.wikidata.org/entity/Q547867",
    "universityLabel": "National and Kapodistrian University of Athens",
    "inception": "1837-04-24T00:00:00Z",
    "located_in_the_administrative_territorial_entity": "http://www.wikidata.org/entity/Q643945",
    "located_in_the_administrative_territorial_entityLabel": "Dirfys-Messapia Municipality",
    "country": "http://www.wikidata.org/entity/Q41",
    "countryLabel": "Greece",
    "students_count": 70461,
    "image": "http://commons.wikimedia.org/wiki/Special:FilePath/Universit%C3%A4t%20von%20Athen.jpg",
    "lon": 23.73877778,
    "lat": 37.95111111,
    "lat_lon": "37.951111111,23.738777777",
    "": "",
    "__1": ""
  },
  {
    "university": "http://www.wikidata.org/entity/Q540751",
    "universityLabel": "Anglia Ruskin University",
    "inception": "1858-01-01T00:00:00Z",
    "located_in_the_administrative_territorial_entity": "http://www.wikidata.org/entity/Q21272241",
    "located_in_the_administrative_territorial_entityLabel": "Essex",
    "country": "http://www.wikidata.org/entity/Q145",
    "countryLabel": "United Kingdom",
    "students_count": 31500,
    "image": "http://commons.wikimedia.org/wiki/Special:FilePath/Anglia%20Ruskin%20Cambridge%20Main%2C%2028%20Sep%2C%202012.jpg",
    "lon": 0.133694444,
    "lat": 52.20308333,
    "lat_lon": "52.203083333,0.133694444",
    "": "",
    "__1": ""
  },
  {
    "university": "http://www.wikidata.org/entity/Q31249",
    "universityLabel": "Kansas State University",
    "inception": "1863-01-01T00:00:00Z",
    "located_in_the_administrative_territorial_entity": "http://www.wikidata.org/entity/Q856841",
    "located_in_the_administrative_territorial_entityLabel": "Manhattan",
    "country": "http://www.wikidata.org/entity/Q30",
    "countryLabel": "United States of America",
    "students_count": 20854,
    "image": "http://commons.wikimedia.org/wiki/Special:FilePath/KSU%20Campus.jpg",
    "lon": -96.58083333,
    "lat": 39.19166667,
    "lat_lon": "39.191666666,-96.580833333",
    "": "",
    "__1": ""
  },
  {
    "university": "http://www.wikidata.org/entity/Q547867",
    "universityLabel": "National and Kapodistrian University of Athens",
    "inception": "1837-04-24T00:00:00Z",
    "located_in_the_administrative_territorial_entity": "http://www.wikidata.org/entity/Q1224979",
    "located_in_the_administrative_territorial_entityLabel": "Athens Municipality",
    "country": "http://www.wikidata.org/entity/Q41",
    "countryLabel": "Greece",
    "students_count": 70461,
    "image": "http://commons.wikimedia.org/wiki/Special:FilePath/Universit%C3%A4t%20von%20Athen.jpg",
    "lon": 23.76516667,
    "lat": 37.98444444,
    "lat_lon": "37.984444444,23.765166666",
    "": "",
    "__1": ""
  },
  {
    "university": "http://www.wikidata.org/entity/Q547867",
    "universityLabel": "National and Kapodistrian University of Athens",
    "inception": "1837-04-24T00:00:00Z",
    "located_in_the_administrative_territorial_entity": "http://www.wikidata.org/entity/Q25413913",
    "located_in_the_administrative_territorial_entityLabel": "Zografou Municipality",
    "country": "http://www.wikidata.org/entity/Q41",
    "countryLabel": "Greece",
    "students_count": 70461,
    "image": "http://commons.wikimedia.org/wiki/Special:FilePath/Universit%C3%A4t%20von%20Athen.jpg",
    "lon": 23.73395165,
    "lat": 37.98085747,
    "lat_lon": "37.980857465,23.733951653",
    "": "",
    "__1": ""
  },
  {
    "university": "http://www.wikidata.org/entity/Q498526",
    "universityLabel": "San José State University",
    "inception": "1857-01-01T00:00:00Z",
    "located_in_the_administrative_territorial_entity": "http://www.wikidata.org/entity/Q99",
    "located_in_the_administrative_territorial_entityLabel": "California",
    "country": "http://www.wikidata.org/entity/Q30",
    "countryLabel": "United States of America",
    "students_count": 36208,
    "image": "http://commons.wikimedia.org/wiki/Special:FilePath/2008-0817-SJSU-MLKlib.jpg",
    "lon": -121.8811111,
    "lat": 37.33555556,
    "lat_lon": "37.335555555,-121.881111111",
    "": "",
    "__1": ""
  },
  {
    "university": "http://www.wikidata.org/entity/Q547867",
    "universityLabel": "National and Kapodistrian University of Athens",
    "inception": "1837-04-24T00:00:00Z",
    "located_in_the_administrative_territorial_entity": "http://www.wikidata.org/entity/Q1224979",
    "located_in_the_administrative_territorial_entityLabel": "Athens Municipality",
    "country": "http://www.wikidata.org/entity/Q41",
    "countryLabel": "Greece",
    "students_count": 70461,
    "image": "http://commons.wikimedia.org/wiki/Special:FilePath/Universit%C3%A4t%20von%20Athen.jpg",
    "lon": 23.64822222,
    "lat": 38.57008333,
    "lat_lon": "38.570083333,23.648222222",
    "": "",
    "__1": ""
  },
  {
    "university": "http://www.wikidata.org/entity/Q75478",
    "universityLabel": "New York University Tandon School of Engineering",
    "inception": "1854-01-01T00:00:00Z",
    "located_in_the_administrative_territorial_entity": "http://www.wikidata.org/entity/Q18419",
    "located_in_the_administrative_territorial_entityLabel": "Brooklyn",
    "country": "http://www.wikidata.org/entity/Q30",
    "countryLabel": "United States of America",
    "students_count": 2800,
    "image": "http://commons.wikimedia.org/wiki/Special:FilePath/99Livingston%20wObservatory%20150x200.jpg",
    "lon": -73.9865,
    "lat": 40.6944,
    "lat_lon": "40.6944,-73.9865",
    "": "",
    "__1": ""
  },
  {
    "university": "http://www.wikidata.org/entity/Q75478",
    "universityLabel": "New York University Tandon School of Engineering",
    "inception": "1854-01-01T00:00:00Z",
    "located_in_the_administrative_territorial_entity": "http://www.wikidata.org/entity/Q18419",
    "located_in_the_administrative_territorial_entityLabel": "Brooklyn",
    "country": "http://www.wikidata.org/entity/Q30",
    "countryLabel": "United States of America",
    "students_count": 2800,
    "image": "http://commons.wikimedia.org/wiki/Special:FilePath/Electrostatic%20Laboratory%20of%20the%20Polytechnic%20Institute.jpg",
    "lon": -73.9865,
    "lat": 40.6944,
    "lat_lon": "40.6944,-73.9865",
    "": "",
    "__1": ""
  },
  {
    "university": "http://www.wikidata.org/entity/Q75478",
    "universityLabel": "New York University Tandon School of Engineering",
    "inception": "1854-01-01T00:00:00Z",
    "located_in_the_administrative_territorial_entity": "http://www.wikidata.org/entity/Q18419",
    "located_in_the_administrative_territorial_entityLabel": "Brooklyn",
    "country": "http://www.wikidata.org/entity/Q30",
    "countryLabel": "United States of America",
    "students_count": 2800,
    "image": "http://commons.wikimedia.org/wiki/Special:FilePath/Polytechnic%20School%20of%20Engineering%20-%20School%20and%20dorm.jpg",
    "lon": -73.9865,
    "lat": 40.6944,
    "lat_lon": "40.6944,-73.9865",
    "": "",
    "__1": ""
  },
  {
    "university": "http://www.wikidata.org/entity/Q75478",
    "universityLabel": "New York University Tandon School of Engineering",
    "inception": "1854-01-01T00:00:00Z",
    "located_in_the_administrative_territorial_entity": "http://www.wikidata.org/entity/Q18419",
    "located_in_the_administrative_territorial_entityLabel": "Brooklyn",
    "country": "http://www.wikidata.org/entity/Q30",
    "countryLabel": "United States of America",
    "students_count": 2800,
    "image": "http://commons.wikimedia.org/wiki/Special:FilePath/PolytechnicUniversity1409a.jpg",
    "lon": -73.9865,
    "lat": 40.6944,
    "lat_lon": "40.6944,-73.9865",
    "": "",
    "__1": ""
  },
  {
    "university": "http://www.wikidata.org/entity/Q75478",
    "universityLabel": "New York University Tandon School of Engineering",
    "inception": "1854-01-01T00:00:00Z",
    "located_in_the_administrative_territorial_entity": "http://www.wikidata.org/entity/Q18419",
    "located_in_the_administrative_territorial_entityLabel": "Brooklyn",
    "country": "http://www.wikidata.org/entity/Q30",
    "countryLabel": "United States of America",
    "students_count": 2800,
    "image": "http://commons.wikimedia.org/wiki/Special:FilePath/Roger%27s%20Hall%20of%20NYU%20Polytechnic%20School%20of%20Engineering.jpg",
    "lon": -73.9865,
    "lat": 40.6944,
    "lat_lon": "40.6944,-73.9865",
    "": "",
    "__1": ""
  },
  {
    "university": "http://www.wikidata.org/entity/Q75478",
    "universityLabel": "New York University Tandon School of Engineering",
    "inception": "1854-01-01T00:00:00Z",
    "located_in_the_administrative_territorial_entity": "http://www.wikidata.org/entity/Q18419",
    "located_in_the_administrative_territorial_entityLabel": "Brooklyn",
    "country": "http://www.wikidata.org/entity/Q30",
    "countryLabel": "United States of America",
    "students_count": 2800,
    "image": "http://commons.wikimedia.org/wiki/Special:FilePath/Rogers%20Hall%20Poly%20jeh.jpg",
    "lon": -73.9865,
    "lat": 40.6944,
    "lat_lon": "40.6944,-73.9865",
    "": "",
    "__1": ""
  },
  {
    "university": "http://www.wikidata.org/entity/Q75478",
    "universityLabel": "New York University Tandon School of Engineering",
    "inception": "1854-01-01T00:00:00Z",
    "located_in_the_administrative_territorial_entity": "http://www.wikidata.org/entity/Q18419",
    "located_in_the_administrative_territorial_entityLabel": "Brooklyn",
    "country": "http://www.wikidata.org/entity/Q30",
    "countryLabel": "United States of America",
    "students_count": 2800,
    "image": "http://commons.wikimedia.org/wiki/Special:FilePath/Wunsch%20building%20among%20MetroTech.jpg",
    "lon": -73.9865,
    "lat": 40.6944,
    "lat_lon": "40.6944,-73.9865",
    "": "",
    "__1": ""
  },
  {
    "university": "http://www.wikidata.org/entity/Q432475",
    "universityLabel": "University of Canterbury",
    "inception": "1873-01-01T00:00:00Z",
    "located_in_the_administrative_territorial_entity": "http://www.wikidata.org/entity/Q32159699",
    "located_in_the_administrative_territorial_entityLabel": "Christchurch City",
    "country": "http://www.wikidata.org/entity/Q664",
    "countryLabel": "New Zealand",
    "students_count": 17299,
    "image": "http://commons.wikimedia.org/wiki/Special:FilePath/UC%20CentralLibrary01%20gobeirne.jpg",
    "lon": 172.5819444,
    "lat": -43.52333333,
    "lat_lon": "-43.523333333,172.581944444",
    "": "",
    "__1": ""
  },
  {
    "university": "http://www.wikidata.org/entity/Q540672",
    "universityLabel": "Auburn University",
    "inception": "1856-01-01T00:00:00Z",
    "located_in_the_administrative_territorial_entity": "http://www.wikidata.org/entity/Q79728",
    "located_in_the_administrative_territorial_entityLabel": "Auburn",
    "country": "http://www.wikidata.org/entity/Q30",
    "countryLabel": "United States of America",
    "students_count": 25469,
    "image": "http://commons.wikimedia.org/wiki/Special:FilePath/AuburnUniversity-SamfordHall.jpg",
    "lon": -85.486078,
    "lat": 32.603374,
    "lat_lon": "32.603374,-85.486078",
    "": "",
    "__1": ""
  },
  {
    "university": "http://www.wikidata.org/entity/Q465922",
    "universityLabel": "Gdańsk University of Technology",
    "inception": "1904-01-01T00:00:00Z",
    "located_in_the_administrative_territorial_entity": "http://www.wikidata.org/entity/Q1792",
    "located_in_the_administrative_territorial_entityLabel": "Gdańsk",
    "country": "http://www.wikidata.org/entity/Q36",
    "countryLabel": "Poland",
    "students_count": 20000,
    "image": "http://commons.wikimedia.org/wiki/Special:FilePath/Gmach%20glowny%20politechnika.jpg",
    "lon": 18.61888889,
    "lat": 54.37138889,
    "lat_lon": "54.371388888,18.618888888",
    "": "",
    "__1": ""
  },
  {
    "university": "http://www.wikidata.org/entity/Q472167",
    "universityLabel": "University of Winnipeg",
    "inception": "1967-01-01T00:00:00Z",
    "located_in_the_administrative_territorial_entity": "http://www.wikidata.org/entity/Q2135",
    "located_in_the_administrative_territorial_entityLabel": "Winnipeg",
    "country": "http://www.wikidata.org/entity/Q16",
    "countryLabel": "Canada",
    "students_count": 9394,
    "image": "http://commons.wikimedia.org/wiki/Special:FilePath/UofW.JPG",
    "lon": -97.15336667,
    "lat": 49.89012222,
    "lat_lon": "49.890122222,-97.153366666",
    "": "",
    "__1": ""
  },
  {
    "university": "http://www.wikidata.org/entity/Q495015",
    "universityLabel": "Fudan University",
    "inception": "1905-01-01T00:00:00Z",
    "located_in_the_administrative_territorial_entity": "http://www.wikidata.org/entity/Q661533",
    "located_in_the_administrative_territorial_entityLabel": "Yangpu District",
    "country": "http://www.wikidata.org/entity/Q148",
    "countryLabel": "People's Republic of China",
    "students_count": 44300,
    "image": "http://commons.wikimedia.org/wiki/Special:FilePath/Fudan%20university.jpg",
    "lon": 121.4991667,
    "lat": 31.29888889,
    "lat_lon": "31.298888888,121.499166666",
    "": "",
    "__1": ""
  },
  {
    "university": "http://www.wikidata.org/entity/Q263064",
    "universityLabel": "University of California, Santa Barbara",
    "inception": "1891-01-01T00:00:00Z",
    "located_in_the_administrative_territorial_entity": "http://www.wikidata.org/entity/Q159288",
    "located_in_the_administrative_territorial_entityLabel": "Santa Barbara",
    "country": "http://www.wikidata.org/entity/Q30",
    "countryLabel": "United States of America",
    "students_count": 26314,
    "image": "http://commons.wikimedia.org/wiki/Special:FilePath/UCSB%20University%20Center%20and%20Storke%20Tower.jpg",
    "lon": -119.8463925,
    "lat": 34.4163232,
    "lat_lon": "34.4163232,-119.8463925",
    "": "",
    "__1": ""
  },
  {
    "university": "http://www.wikidata.org/entity/Q15142",
    "universityLabel": "University of Massachusetts Amherst",
    "inception": "1863-01-01T00:00:00Z",
    "located_in_the_administrative_territorial_entity": "http://www.wikidata.org/entity/Q771",
    "located_in_the_administrative_territorial_entityLabel": "Massachusetts",
    "country": "http://www.wikidata.org/entity/Q30",
    "countryLabel": "United States of America",
    "students_count": 31350,
    "image": "http://commons.wikimedia.org/wiki/Special:FilePath/Umass%20Amherst%20Skyline.jpg",
    "lon": -72.52777778,
    "lat": 42.38888889,
    "lat_lon": "42.388888888,-72.527777777",
    "": "",
    "__1": ""
  },
  {
    "university": "http://www.wikidata.org/entity/Q23985",
    "universityLabel": "Khmelnytskyi National University",
    "inception": "1962-01-01T00:00:00Z",
    "located_in_the_administrative_territorial_entity": "http://www.wikidata.org/entity/Q156717",
    "located_in_the_administrative_territorial_entityLabel": "Khmelnytskyi",
    "country": "http://www.wikidata.org/entity/Q212",
    "countryLabel": "Ukraine",
    "students_count": 9759,
    "image": "http://commons.wikimedia.org/wiki/Special:FilePath/%D0%A6%D0%B5%D0%BD%D1%82%D1%80%D0%B0%D0%BB%D1%8C%D0%BD%D0%B0%20%D0%B0%D0%BB%D0%B5%D1%8F%20%D0%B1%D0%BE%D1%82%D0%B0%D0%BD%D1%96%D1%87%D0%BD%D0%BE%D0%B3%D0%BE%20%D1%81%D0%B0%D0%B4%D1%83%20%D0%A5%D0%9D%D0%A3.jpg",
    "lon": 26.96239,
    "lat": 49.40725,
    "lat_lon": "49.40725,26.96239",
    "": "",
    "__1": ""
  },
  {
    "university": "http://www.wikidata.org/entity/Q15142",
    "universityLabel": "University of Massachusetts Amherst",
    "inception": "1863-01-01T00:00:00Z",
    "located_in_the_administrative_territorial_entity": "http://www.wikidata.org/entity/Q771",
    "located_in_the_administrative_territorial_entityLabel": "Massachusetts",
    "country": "http://www.wikidata.org/entity/Q30",
    "countryLabel": "United States of America",
    "students_count": 24209,
    "image": "http://commons.wikimedia.org/wiki/Special:FilePath/Umass%20Amherst%20Skyline.jpg",
    "lon": -72.52777778,
    "lat": 42.38888889,
    "lat_lon": "42.388888888,-72.527777777",
    "": "",
    "__1": ""
  },
  {
    "university": "http://www.wikidata.org/entity/Q547867",
    "universityLabel": "National and Kapodistrian University of Athens",
    "inception": "1837-04-24T00:00:00Z",
    "located_in_the_administrative_territorial_entity": "http://www.wikidata.org/entity/Q1224979",
    "located_in_the_administrative_territorial_entityLabel": "Athens Municipality",
    "country": "http://www.wikidata.org/entity/Q41",
    "countryLabel": "Greece",
    "students_count": 70461,
    "image": "http://commons.wikimedia.org/wiki/Special:FilePath/Universit%C3%A4t%20von%20Athen.jpg",
    "lon": 23.7764931,
    "lat": 37.968196,
    "lat_lon": "37.968196,23.7764931",
    "": "",
    "__1": ""
  },
  {
    "university": "http://www.wikidata.org/entity/Q262760",
    "universityLabel": "École polytechnique fédérale de Lausanne",
    "inception": "1969-01-01T00:00:00Z",
    "located_in_the_administrative_territorial_entity": "http://www.wikidata.org/entity/Q807",
    "located_in_the_administrative_territorial_entityLabel": "Lausanne",
    "country": "http://www.wikidata.org/entity/Q39",
    "countryLabel": "Switzerland",
    "students_count": 10000,
    "image": "http://commons.wikimedia.org/wiki/Special:FilePath/EPFL%20campus%202017.jpg",
    "lon": 6.565555555,
    "lat": 46.52027778,
    "lat_lon": "46.520277777,6.565555555",
    "": "",
    "__1": ""
  },
  {
    "university": "http://www.wikidata.org/entity/Q94192",
    "universityLabel": "National Metallurgical Academy of Ukraine",
    "inception": "1899-01-01T00:00:00Z",
    "located_in_the_administrative_territorial_entity": "http://www.wikidata.org/entity/Q48256",
    "located_in_the_administrative_territorial_entityLabel": "Dnipro",
    "country": "http://www.wikidata.org/entity/Q212",
    "countryLabel": "Ukraine",
    "students_count": 15000,
    "image": "http://commons.wikimedia.org/wiki/Special:FilePath/%D0%9D%D0%B0%D1%86%D0%B8%D0%BE%D0%BD%D0%B0%D0%BB%D1%8C%D0%BD%D0%B0%D1%8F%20%D0%BC%D0%B5%D1%82%D0%B0%D0%BB%D0%BB%D1%83%D1%80%D0%B3%D0%B8%D1%87%D0%B5%D1%81%D0%BA%D0%B0%D1%8F%20%D0%B0%D0%BA%D0%B0%D0%B4%D0%B5%D0%BC%D0%B8%D1%8F%20%D0%A3%D0%BA%D1%80%D0%B0%D0%B8%D0%BD%D1%8B.jpg",
    "lon": 35.0626,
    "lat": 48.4534,
    "lat_lon": "48.4534,35.0626",
    "": "",
    "__1": ""
  },